{
 "generated": "2026-06-12T11:59:23Z",
 "menu_date": "pátek 12. 6. 2026",
 "count": 211,
 "restaurants": [
  {
   "id": "z-lacasadierminio-50.0796",
   "name": "La Casa di Erminio",
   "district": null,
   "address": null,
   "lat": 50.0796331,
   "lng": 14.4462049,
   "url": "https://lacasadierminio.cz/",
   "menu": [],
   "menu_status": "link",
   "menu_url": "https://lacasadierminio.cz/",
   "platform": "web",
   "source": "web",
   "zone": true,
   "time_from": null,
   "time_to": null,
   "web_confirmed": false,
   "website": "https://lacasadierminio.cz/",
   "source_url": "https://lacasadierminio.cz/",
   "menu_date_web": null
  },
  {
   "id": "z-carlitospolleriaalcarb-50.0787",
   "name": "Carlitos - Pollería al carbón",
   "district": null,
   "address": null,
   "lat": 50.0786989,
   "lng": 14.4455506,
   "url": "https://carlitos.cz/",
   "menu": [],
   "menu_status": "link",
   "menu_url": "https://carlitos.cz/",
   "platform": "web",
   "source": "web",
   "zone": true,
   "time_from": null,
   "time_to": null,
   "web_confirmed": false,
   "website": "https://carlitos.cz/",
   "source_url": "https://carlitos.cz/",
   "menu_date_web": null
  },
  {
   "id": "z-yamato-50.0785",
   "name": "Yamato",
   "district": null,
   "address": null,
   "lat": 50.0784816,
   "lng": 14.4461544,
   "url": "https://yamato.cz",
   "menu": [],
   "menu_status": "link",
   "menu_url": "https://yamato.cz",
   "platform": "web",
   "source": "web",
   "zone": true,
   "time_from": null,
   "time_to": null,
   "web_confirmed": false,
   "website": "https://yamato.cz",
   "source_url": "https://yamato.cz",
   "menu_date_web": "2026-06-05"
  },
  {
   "id": "z-naschudku-50.0785",
   "name": "Na Schůdku",
   "district": null,
   "address": null,
   "lat": 50.0784666,
   "lng": 14.4457386,
   "url": null,
   "menu": [],
   "menu_status": "none",
   "menu_url": null,
   "platform": "none",
   "source": "web",
   "zone": true,
   "time_from": null,
   "time_to": null,
   "web_confirmed": false,
   "website": null,
   "source_url": null,
   "menu_date_web": null
  },
  {
   "id": "z-kabuki-50.0784",
   "name": "Kabuki",
   "district": null,
   "address": null,
   "lat": 50.0784056,
   "lng": 14.4461041,
   "url": null,
   "menu": [],
   "menu_status": "none",
   "menu_url": null,
   "platform": "none",
   "source": "web",
   "zone": true,
   "time_from": null,
   "time_to": null,
   "web_confirmed": false,
   "website": null,
   "source_url": null,
   "menu_date_web": null
  },
  {
   "id": "z-zizkovnazizkove-50.0831",
   "name": "Žižkov na Žižkově",
   "district": null,
   "address": null,
   "lat": 50.0830676,
   "lng": 14.4552834,
   "url": "http://hodovnazizkov.cz/",
   "menu": [],
   "menu_status": "link",
   "menu_url": "http://hodovnazizkov.cz/",
   "platform": "none",
   "source": "web",
   "zone": true,
   "time_from": null,
   "time_to": null,
   "web_confirmed": false,
   "website": "http://hodovnazizkov.cz/",
   "source_url": "http://hodovnazizkov.cz/",
   "menu_date_web": null
  },
  {
   "id": "z-unobistro-50.0796",
   "name": "uno bistro",
   "district": null,
   "address": null,
   "lat": 50.0796299,
   "lng": 14.4474439,
   "url": null,
   "menu": [],
   "menu_status": "none",
   "menu_url": null,
   "platform": "none",
   "source": "web",
   "zone": true,
   "time_from": null,
   "time_to": null,
   "web_confirmed": false,
   "website": null,
   "source_url": null,
   "menu_date_web": null
  },
  {
   "id": "z-bowltonic-50.0798",
   "name": "Bowl & Tonic",
   "district": null,
   "address": null,
   "lat": 50.0797824,
   "lng": 14.4473199,
   "url": null,
   "menu": [],
   "menu_status": "none",
   "menu_url": null,
   "platform": "none",
   "source": "web",
   "zone": true,
   "time_from": null,
   "time_to": null,
   "web_confirmed": false,
   "website": null,
   "source_url": null,
   "menu_date_web": null
  },
  {
   "id": "z-pizzamnam-50.0797",
   "name": "Pizza Mňam",
   "district": null,
   "address": null,
   "lat": 50.0796824,
   "lng": 14.4474414,
   "url": "https://pizzamnam.webnode.cz",
   "menu": [],
   "menu_status": "link",
   "menu_url": "https://pizzamnam.webnode.cz",
   "platform": "web",
   "source": "web",
   "zone": true,
   "time_from": null,
   "time_to": null,
   "web_confirmed": false,
   "website": "https://pizzamnam.webnode.cz",
   "source_url": "https://pizzamnam.webnode.cz",
   "menu_date_web": null
  },
  {
   "id": "z-dottir-50.0798",
   "name": "Dóttir",
   "district": null,
   "address": null,
   "lat": 50.0798479,
   "lng": 14.4472921,
   "url": null,
   "menu": [],
   "menu_status": "none",
   "menu_url": null,
   "platform": "none",
   "source": "web",
   "zone": true,
   "time_from": null,
   "time_to": null,
   "web_confirmed": false,
   "website": null,
   "source_url": null,
   "menu_date_web": null
  },
  {
   "id": "z-knajpicka-50.0793",
   "name": "Knajpička",
   "district": null,
   "address": null,
   "lat": 50.0792554,
   "lng": 14.4477667,
   "url": null,
   "menu": [],
   "menu_status": "none",
   "menu_url": null,
   "platform": "none",
   "source": "web",
   "zone": true,
   "time_from": null,
   "time_to": null,
   "web_confirmed": false,
   "website": null,
   "source_url": null,
   "menu_date_web": null
  },
  {
   "id": "z-ragazzi-50.0801",
   "name": "Ragazzi",
   "district": null,
   "address": null,
   "lat": 50.0801082,
   "lng": 14.4469243,
   "url": "https://www.ragazzipizzabar.com",
   "menu": [],
   "menu_status": "link",
   "menu_url": "https://www.ragazzipizzabar.com",
   "platform": "none",
   "source": "web",
   "zone": true,
   "time_from": null,
   "time_to": null,
   "web_confirmed": false,
   "website": "https://www.ragazzipizzabar.com",
   "source_url": "https://www.ragazzipizzabar.com",
   "menu_date_web": null
  },
  {
   "id": "z-anmyssushibar-50.0849",
   "name": "Anmy's Sushi Bar",
   "district": null,
   "address": null,
   "lat": 50.0848676,
   "lng": 14.4547653,
   "url": null,
   "menu": [],
   "menu_status": "none",
   "menu_url": null,
   "platform": "none",
   "source": "web",
   "zone": true,
   "time_from": null,
   "time_to": null,
   "web_confirmed": false,
   "website": null,
   "source_url": null,
   "menu_date_web": null
  },
  {
   "id": "z-pizzapraha-50.0837",
   "name": "Pizza Praha",
   "district": null,
   "address": null,
   "lat": 50.0836843,
   "lng": 14.454061,
   "url": null,
   "menu": [],
   "menu_status": "none",
   "menu_url": null,
   "platform": "none",
   "source": "web",
   "zone": true,
   "time_from": null,
   "time_to": null,
   "web_confirmed": false,
   "website": null,
   "source_url": null,
   "menu_date_web": null
  },
  {
   "id": "z-etcorner-50.0843",
   "name": "etCorner",
   "district": null,
   "address": null,
   "lat": 50.0843366,
   "lng": 14.4540763,
   "url": null,
   "menu": [],
   "menu_status": "none",
   "menu_url": null,
   "platform": "none",
   "source": "web",
   "zone": true,
   "time_from": null,
   "time_to": null,
   "web_confirmed": false,
   "website": null,
   "source_url": null,
   "menu_date_web": null
  },
  {
   "id": "z-sumigarden-50.08",
   "name": "Sumi Garden",
   "district": null,
   "address": null,
   "lat": 50.0799684,
   "lng": 14.4475901,
   "url": "https://www.sumigarden.com/",
   "menu": [],
   "menu_status": "link",
   "menu_url": "https://www.sumigarden.com/",
   "platform": "web",
   "source": "web",
   "zone": true,
   "time_from": null,
   "time_to": null,
   "web_confirmed": false,
   "website": "https://www.sumigarden.com/",
   "source_url": "https://www.sumigarden.com/",
   "menu_date_web": null
  },
  {
   "id": "z-phoslavikova12-50.0795",
   "name": "PHO Slavíkova 12",
   "district": null,
   "address": null,
   "lat": 50.0794874,
   "lng": 14.4480068,
   "url": null,
   "menu": [],
   "menu_status": "none",
   "menu_url": null,
   "platform": "none",
   "source": "web",
   "zone": true,
   "time_from": null,
   "time_to": null,
   "web_confirmed": false,
   "website": null,
   "source_url": null,
   "menu_date_web": null
  },
  {
   "id": "z-azarkebab-50.0838",
   "name": "Azar Kebab",
   "district": null,
   "address": null,
   "lat": 50.0837544,
   "lng": 14.4539753,
   "url": null,
   "menu": [],
   "menu_status": "none",
   "menu_url": null,
   "platform": "none",
   "source": "web",
   "zone": true,
   "time_from": null,
   "time_to": null,
   "web_confirmed": false,
   "website": null,
   "source_url": null,
   "menu_date_web": null
  },
  {
   "id": "z-nominanza-50.0829",
   "name": "Nominanza",
   "district": null,
   "address": null,
   "lat": 50.0828974,
   "lng": 14.4572085,
   "url": "https://nominanza.com/index-zizkov.html",
   "menu": [],
   "menu_status": "link",
   "menu_url": "https://nominanza.com/index-zizkov.html",
   "platform": "generic",
   "source": "web",
   "zone": true,
   "time_from": null,
   "time_to": null,
   "web_confirmed": false,
   "website": "https://nominanza.com",
   "source_url": "https://nominanza.com/index-zizkov.html",
   "menu_date_web": "2026-06-05"
  },
  {
   "id": "z-smad-50.0834",
   "name": "Smad",
   "district": null,
   "address": null,
   "lat": 50.0833635,
   "lng": 14.4540964,
   "url": null,
   "menu": [],
   "menu_status": "none",
   "menu_url": null,
   "platform": "none",
   "source": "web",
   "zone": true,
   "time_from": null,
   "time_to": null,
   "web_confirmed": false,
   "website": null,
   "source_url": null,
   "menu_date_web": null
  },
  {
   "id": "z-orientalbistro-50.0842",
   "name": "Oriental Bistro",
   "district": null,
   "address": null,
   "lat": 50.0841698,
   "lng": 14.4538519,
   "url": null,
   "menu": [],
   "menu_status": "none",
   "menu_url": null,
   "platform": "none",
   "source": "web",
   "zone": true,
   "time_from": null,
   "time_to": null,
   "web_confirmed": false,
   "website": null,
   "source_url": null,
   "menu_date_web": null
  },
  {
   "id": "z-stanekparukarka-50.0843",
   "name": "Stánek Parukářka",
   "district": null,
   "address": null,
   "lat": 50.0842872,
   "lng": 14.4581753,
   "url": null,
   "menu": [],
   "menu_status": "none",
   "menu_url": null,
   "platform": "none",
   "source": "web",
   "zone": true,
   "time_from": null,
   "time_to": null,
   "web_confirmed": false,
   "website": null,
   "source_url": null,
   "menu_date_web": null
  },
  {
   "id": "z-ilcapitano-50.0789",
   "name": "Il Capitano",
   "district": null,
   "address": null,
   "lat": 50.0788941,
   "lng": 14.4484717,
   "url": null,
   "menu": [],
   "menu_status": "none",
   "menu_url": null,
   "platform": "none",
   "source": "web",
   "zone": true,
   "time_from": null,
   "time_to": null,
   "web_confirmed": false,
   "website": null,
   "source_url": null,
   "menu_date_web": null
  },
  {
   "id": "z-phovietnamtuanlan-50.0784",
   "name": "Pho Vietnam Tuan & Lan",
   "district": null,
   "address": null,
   "lat": 50.0784475,
   "lng": 14.4482664,
   "url": "http://photuanlan.com/",
   "menu": [],
   "menu_status": "link",
   "menu_url": "http://photuanlan.com/",
   "platform": "none",
   "source": "web",
   "zone": true,
   "time_from": null,
   "time_to": null,
   "web_confirmed": false,
   "website": "http://photuanlan.com/",
   "source_url": "http://photuanlan.com/",
   "menu_date_web": null
  },
  {
   "id": "z-bistropalacinka-50.0787",
   "name": "Bistro Palacinka",
   "district": null,
   "address": null,
   "lat": 50.0787345,
   "lng": 14.4485354,
   "url": null,
   "menu": [],
   "menu_status": "none",
   "menu_url": null,
   "platform": "none",
   "source": "web",
   "zone": true,
   "time_from": null,
   "time_to": null,
   "web_confirmed": false,
   "website": null,
   "source_url": null,
   "menu_date_web": null
  },
  {
   "id": "z-hotelolsanka-50.0829",
   "name": "Hotel Olšanka",
   "district": null,
   "address": null,
   "lat": 50.0828815,
   "lng": 14.4580299,
   "url": "https://hotelolsanka.cz",
   "menu": [],
   "menu_status": "link",
   "menu_url": "https://hotelolsanka.cz",
   "platform": "web",
   "source": "web",
   "zone": true,
   "time_from": null,
   "time_to": null,
   "web_confirmed": false,
   "website": "https://hotelolsanka.cz",
   "source_url": "https://hotelolsanka.cz",
   "menu_date_web": null
  },
  {
   "id": "z-hanil-50.0808",
   "name": "Hanil",
   "district": null,
   "address": null,
   "lat": 50.080816,
   "lng": 14.4464541,
   "url": "https://hanil.cz",
   "menu": [],
   "menu_status": "link",
   "menu_url": "https://hanil.cz",
   "platform": "web",
   "source": "web",
   "zone": true,
   "time_from": null,
   "time_to": null,
   "web_confirmed": false,
   "website": "https://hanil.cz",
   "source_url": "https://hanil.cz",
   "menu_date_web": null
  },
  {
   "id": "z-yummyhummus-50.0787",
   "name": "Yummy Hummus",
   "district": null,
   "address": null,
   "lat": 50.0786878,
   "lng": 14.4485749,
   "url": null,
   "menu": [],
   "menu_status": "none",
   "menu_url": null,
   "platform": "none",
   "source": "web",
   "zone": true,
   "time_from": null,
   "time_to": null,
   "web_confirmed": false,
   "website": null,
   "source_url": null,
   "menu_date_web": null
  },
  {
   "id": "z-tastytoasts-50.0809",
   "name": "Tasty Toasts",
   "district": null,
   "address": null,
   "lat": 50.0808587,
   "lng": 14.4463448,
   "url": null,
   "menu": [],
   "menu_status": "none",
   "menu_url": null,
   "platform": "none",
   "source": "web",
   "zone": true,
   "time_from": null,
   "time_to": null,
   "web_confirmed": false,
   "website": null,
   "source_url": null,
   "menu_date_web": null
  },
  {
   "id": "z-burritoloco-50.084",
   "name": "Burrito Loco",
   "district": null,
   "address": null,
   "lat": 50.0839615,
   "lng": 14.4532048,
   "url": "https://burritoloco.cz/",
   "menu": [],
   "menu_status": "link",
   "menu_url": "https://burritoloco.cz/",
   "platform": "web",
   "source": "web",
   "zone": true,
   "time_from": null,
   "time_to": null,
   "web_confirmed": false,
   "website": "https://burritoloco.cz/",
   "source_url": "https://burritoloco.cz/",
   "menu_date_web": null
  },
  {
   "id": "z-ubohouse-50.0783",
   "name": "U Bohouše",
   "district": null,
   "address": null,
   "lat": 50.0783281,
   "lng": 14.4435415,
   "url": "https://www.restauraceubohouse.cz/",
   "menu": [],
   "menu_status": "link",
   "menu_url": "https://www.restauraceubohouse.cz/",
   "platform": "web",
   "source": "web",
   "zone": true,
   "time_from": null,
   "time_to": null,
   "web_confirmed": false,
   "website": "https://www.restauraceubohouse.cz/",
   "source_url": "https://www.restauraceubohouse.cz/",
   "menu_date_web": "2026-06-05"
  },
  {
   "id": "z-miim-50.0809",
   "name": "Mi I'm",
   "district": null,
   "address": null,
   "lat": 50.0809476,
   "lng": 14.4456736,
   "url": null,
   "menu": [],
   "menu_status": "none",
   "menu_url": null,
   "platform": "none",
   "source": "web",
   "zone": true,
   "time_from": null,
   "time_to": null,
   "web_confirmed": false,
   "website": null,
   "source_url": null,
   "menu_date_web": null
  },
  {
   "id": "z-cloudroom-50.0778",
   "name": "Cloud room",
   "district": null,
   "address": null,
   "lat": 50.0778195,
   "lng": 14.4440221,
   "url": "https://www.cloudroom.cz/",
   "menu": [],
   "menu_status": "link",
   "menu_url": "https://www.cloudroom.cz/",
   "platform": "web",
   "source": "web",
   "zone": true,
   "time_from": null,
   "time_to": null,
   "web_confirmed": false,
   "website": "https://www.cloudroom.cz/",
   "source_url": "https://www.cloudroom.cz/",
   "menu_date_web": null
  },
  {
   "id": "z-noodlebar-50.0835",
   "name": "Noodle bar",
   "district": null,
   "address": null,
   "lat": 50.0835393,
   "lng": 14.4531538,
   "url": null,
   "menu": [],
   "menu_status": "none",
   "menu_url": null,
   "platform": "none",
   "source": "web",
   "zone": true,
   "time_from": null,
   "time_to": null,
   "web_confirmed": false,
   "website": null,
   "source_url": null,
   "menu_date_web": null
  },
  {
   "id": "z-zakladna-50.0838",
   "name": "Základna",
   "district": null,
   "address": null,
   "lat": 50.0837698,
   "lng": 14.4529981,
   "url": null,
   "menu": [],
   "menu_status": "none",
   "menu_url": null,
   "platform": "none",
   "source": "web",
   "zone": true,
   "time_from": null,
   "time_to": null,
   "web_confirmed": false,
   "website": null,
   "source_url": null,
   "menu_date_web": null
  },
  {
   "id": "z-plzenkaolse-50.0823",
   "name": "Plzeňka Olše",
   "district": null,
   "address": null,
   "lat": 50.0823021,
   "lng": 14.4576402,
   "url": "https://plzenkaolse.cz/denni-menu",
   "menu": [],
   "menu_status": "link",
   "menu_url": "https://plzenkaolse.cz/denni-menu",
   "platform": "generic",
   "source": "web",
   "zone": true,
   "time_from": null,
   "time_to": null,
   "web_confirmed": false,
   "website": "https://plzenkaolse.cz",
   "source_url": "https://plzenkaolse.cz/denni-menu",
   "menu_date_web": null
  },
  {
   "id": "z-amunipizzeria-50.0772",
   "name": "Amuni Pizzeria",
   "district": null,
   "address": null,
   "lat": 50.0771817,
   "lng": 14.4465066,
   "url": "https://amunivinohrady.choiceqr.com/section:poledni-menu",
   "menu": [],
   "menu_status": "link",
   "menu_url": "https://amunivinohrady.choiceqr.com/section:poledni-menu",
   "platform": "choiceqr",
   "source": "web",
   "zone": true,
   "time_from": null,
   "time_to": null,
   "web_confirmed": false,
   "website": "https://www.amunipraha.cz/",
   "source_url": "https://amunivinohrady.choiceqr.com/section:poledni-menu",
   "menu_date_web": null
  },
  {
   "id": "z-mailsi-50.0836",
   "name": "Mailsi",
   "district": null,
   "address": null,
   "lat": 50.0836374,
   "lng": 14.4528238,
   "url": null,
   "menu": [],
   "menu_status": "none",
   "menu_url": null,
   "platform": "none",
   "source": "web",
   "zone": true,
   "time_from": null,
   "time_to": null,
   "web_confirmed": false,
   "website": null,
   "source_url": null,
   "menu_date_web": null
  },
  {
   "id": "z-pelmenarnanajiraku-50.0777",
   "name": "Pelmeňárna na Jiřáku",
   "district": null,
   "address": null,
   "lat": 50.0777199,
   "lng": 14.448578,
   "url": "https://www.pelmenarna.com/",
   "menu": [],
   "menu_status": "link",
   "menu_url": "https://www.pelmenarna.com/",
   "platform": "web",
   "source": "web",
   "zone": true,
   "time_from": null,
   "time_to": null,
   "web_confirmed": false,
   "website": "https://www.pelmenarna.com/",
   "source_url": "https://www.pelmenarna.com/",
   "menu_date_web": null
  },
  {
   "id": "z-fatalmusicclub-50.0861",
   "name": "Fatal Music Club",
   "district": null,
   "address": null,
   "lat": 50.0860805,
   "lng": 14.4552471,
   "url": "https://fatalclub.cz/",
   "menu": [],
   "menu_status": "link",
   "menu_url": "https://fatalclub.cz/",
   "platform": "web",
   "source": "web",
   "zone": true,
   "time_from": null,
   "time_to": null,
   "web_confirmed": false,
   "website": "https://fatalclub.cz/",
   "source_url": "https://fatalclub.cz/",
   "menu_date_web": null
  },
  {
   "id": "z-bibimbap-50.0843",
   "name": "Bibimbap",
   "district": null,
   "address": null,
   "lat": 50.0843102,
   "lng": 14.4526231,
   "url": "https://www.bibimbap.cz/",
   "menu": [],
   "menu_status": "link",
   "menu_url": "https://www.bibimbap.cz/",
   "platform": "none",
   "source": "web",
   "zone": true,
   "time_from": null,
   "time_to": null,
   "web_confirmed": false,
   "website": "https://www.bibimbap.cz/",
   "source_url": "https://www.bibimbap.cz/",
   "menu_date_web": null
  },
  {
   "id": "z-taiwanrestaurantpraha-50.0775",
   "name": "Taiwan Restaurant PRAHA",
   "district": null,
   "address": null,
   "lat": 50.0774715,
   "lng": 14.4436876,
   "url": null,
   "menu": [],
   "menu_status": "none",
   "menu_url": null,
   "platform": "none",
   "source": "web",
   "zone": true,
   "time_from": null,
   "time_to": null,
   "web_confirmed": false,
   "website": null,
   "source_url": null,
   "menu_date_web": null
  },
  {
   "id": "z-nebeskavune-50.0841",
   "name": "Nebeská vůně",
   "district": null,
   "address": null,
   "lat": 50.0840595,
   "lng": 14.4524088,
   "url": null,
   "menu": [],
   "menu_status": "none",
   "menu_url": null,
   "platform": "none",
   "source": "web",
   "zone": true,
   "time_from": null,
   "time_to": null,
   "web_confirmed": false,
   "website": null,
   "source_url": null,
   "menu_date_web": null
  },
  {
   "id": "z-phoolsanka-50.0824",
   "name": "Pho Olšanka",
   "district": null,
   "address": null,
   "lat": 50.0823878,
   "lng": 14.4587932,
   "url": null,
   "menu": [],
   "menu_status": "none",
   "menu_url": null,
   "platform": "none",
   "source": "web",
   "zone": true,
   "time_from": null,
   "time_to": null,
   "web_confirmed": false,
   "website": null,
   "source_url": null,
   "menu_date_web": null
  },
  {
   "id": "z-royalkebabhouse-50.0843",
   "name": "Royal Kebab House",
   "district": null,
   "address": null,
   "lat": 50.0842634,
   "lng": 14.4522626,
   "url": null,
   "menu": [],
   "menu_status": "none",
   "menu_url": null,
   "platform": "none",
   "source": "web",
   "zone": true,
   "time_from": null,
   "time_to": null,
   "web_confirmed": false,
   "website": null,
   "source_url": null,
   "menu_date_web": null
  },
  {
   "id": "z-usadu-50.0805",
   "name": "U Sadu",
   "district": null,
   "address": null,
   "lat": 50.0805155,
   "lng": 14.4492276,
   "url": "https://www.usadu.cz/",
   "menu": [],
   "menu_status": "link",
   "menu_url": "https://www.usadu.cz/",
   "platform": "web",
   "source": "web",
   "zone": true,
   "time_from": null,
   "time_to": null,
   "web_confirmed": false,
   "website": "https://www.usadu.cz/",
   "source_url": "https://www.usadu.cz/",
   "menu_date_web": null
  },
  {
   "id": "z-thetavern-50.0813",
   "name": "The Tavern",
   "district": null,
   "address": null,
   "lat": 50.0812857,
   "lng": 14.4441225,
   "url": "https://thetavern.cz/",
   "menu": [],
   "menu_status": "link",
   "menu_url": "https://thetavern.cz/",
   "platform": "web",
   "source": "web",
   "zone": true,
   "time_from": null,
   "time_to": null,
   "web_confirmed": false,
   "website": "https://thetavern.cz/",
   "source_url": "https://thetavern.cz/",
   "menu_date_web": null
  },
  {
   "id": "z-hvezdabar-50.0789",
   "name": "Hvězda Bar",
   "district": null,
   "address": null,
   "lat": 50.0788772,
   "lng": 14.4421544,
   "url": "https://www.bullerbyn.cz/hvezda",
   "menu": [],
   "menu_status": "link",
   "menu_url": "https://www.bullerbyn.cz/hvezda",
   "platform": "none",
   "source": "web",
   "zone": true,
   "time_from": null,
   "time_to": null,
   "web_confirmed": false,
   "website": "https://www.bullerbyn.cz/hvezda",
   "source_url": "https://www.bullerbyn.cz/hvezda",
   "menu_date_web": null
  },
  {
   "id": "z-vinohradskyburgerbar-50.0771",
   "name": "Vinohradský Burger Bar",
   "district": null,
   "address": null,
   "lat": 50.0771115,
   "lng": 14.4436867,
   "url": "https://www.vinohradskyburgerbar.cz/",
   "menu": [],
   "menu_status": "link",
   "menu_url": "https://www.vinohradskyburgerbar.cz/",
   "platform": "none",
   "source": "web",
   "zone": true,
   "time_from": null,
   "time_to": null,
   "web_confirmed": false,
   "website": "https://www.vinohradskyburgerbar.cz/",
   "source_url": "https://www.vinohradskyburgerbar.cz/",
   "menu_date_web": null
  },
  {
   "id": "z-olympos-50.0817",
   "name": "Olympos",
   "district": null,
   "address": null,
   "lat": 50.0817138,
   "lng": 14.4468291,
   "url": "https://www.tavernaolympos.eu/menu",
   "menu": [
    {
     "text": "Menu 1: 2ks vepřové suvlaki, domácí hranolky, tzatziki",
     "price": "250 Kč"
    },
    {
     "text": "Menu 2: 180g kuřecí gyros, tzatziki, pita",
     "price": "250 Kč"
    },
    {
     "text": "Menu 3: Giuvetsi (kuřecí kousky zapečené s těstovinovou rýží)",
     "price": "250 Kč"
    },
    {
     "text": "Menu 4: 180g kuřecí steak, hummus, rýže",
     "price": "250 Kč"
    },
    {
     "text": "Menu 5: 2ks hovězí bifteki (mleté maso 200g), fazolový salát, pita",
     "price": "250 Kč"
    }
   ],
   "menu_status": "scraped",
   "menu_url": "https://www.tavernaolympos.eu/menu",
   "platform": "choiceqr",
   "source": "web",
   "zone": true,
   "time_from": "11:00",
   "time_to": "14:00",
   "web_confirmed": true,
   "website": "https://www.tavernaolympos.eu/",
   "source_url": "https://www.tavernaolympos.eu/menu",
   "menu_date_web": "fixed"
  },
  {
   "id": "z-enoteca-50.0787",
   "name": "Enoteca",
   "district": null,
   "address": null,
   "lat": 50.0787075,
   "lng": 14.4500654,
   "url": null,
   "menu": [],
   "menu_status": "none",
   "menu_url": null,
   "platform": "none",
   "source": "web",
   "zone": true,
   "time_from": null,
   "time_to": null,
   "web_confirmed": false,
   "website": null,
   "source_url": null,
   "menu_date_web": null
  },
  {
   "id": "z-pizzadipraga-50.0797",
   "name": "Pizza di Praga",
   "district": null,
   "address": null,
   "lat": 50.0797202,
   "lng": 14.4500859,
   "url": "https://www.pizzadipraga.cz/",
   "menu": [],
   "menu_status": "link",
   "menu_url": "https://www.pizzadipraga.cz/",
   "platform": "web",
   "source": "web",
   "zone": true,
   "time_from": null,
   "time_to": null,
   "web_confirmed": false,
   "website": "https://www.pizzadipraga.cz/",
   "source_url": "https://www.pizzadipraga.cz/",
   "menu_date_web": null
  },
  {
   "id": "z-monami-50.0866",
   "name": "Mon Ami",
   "district": null,
   "address": null,
   "lat": 50.0865575,
   "lng": 14.4549602,
   "url": "https://www.restauracemonami.com/",
   "menu": [],
   "menu_status": "link",
   "menu_url": "https://www.restauracemonami.com/",
   "platform": "web",
   "source": "web",
   "zone": true,
   "time_from": null,
   "time_to": null,
   "web_confirmed": false,
   "website": "https://www.restauracemonami.com/",
   "source_url": "https://www.restauracemonami.com/",
   "menu_date_web": null
  },
  {
   "id": "z-ceskakuchyne-50.0819",
   "name": "Česka kuchyne",
   "district": null,
   "address": null,
   "lat": 50.0818708,
   "lng": 14.4459364,
   "url": null,
   "menu": [],
   "menu_status": "none",
   "menu_url": null,
   "platform": "none",
   "source": "web",
   "zone": true,
   "time_from": null,
   "time_to": null,
   "web_confirmed": false,
   "website": null,
   "source_url": null,
   "menu_date_web": null
  },
  {
   "id": "z-thienlong1-50.0843",
   "name": "Thien Long 1",
   "district": null,
   "address": null,
   "lat": 50.0843323,
   "lng": 14.4517221,
   "url": null,
   "menu": [],
   "menu_status": "none",
   "menu_url": null,
   "platform": "none",
   "source": "web",
   "zone": true,
   "time_from": null,
   "time_to": null,
   "web_confirmed": false,
   "website": null,
   "source_url": null,
   "menu_date_web": null
  },
  {
   "id": "z-pivoaparek-50.0837",
   "name": "Pivo a Párek",
   "district": null,
   "address": null,
   "lat": 50.0837011,
   "lng": 14.4516395,
   "url": "https://pivoaparek.cz",
   "menu": [],
   "menu_status": "link",
   "menu_url": "https://pivoaparek.cz",
   "platform": "web",
   "source": "web",
   "zone": true,
   "time_from": null,
   "time_to": null,
   "web_confirmed": false,
   "website": "https://pivoaparek.cz",
   "source_url": "https://pivoaparek.cz",
   "menu_date_web": null
  },
  {
   "id": "z-dnopytle-50.0771",
   "name": "Dno Pytle",
   "district": null,
   "address": null,
   "lat": 50.0771092,
   "lng": 14.4429838,
   "url": "http://www.dnopytle.cz/",
   "menu": [],
   "menu_status": "link",
   "menu_url": "http://www.dnopytle.cz/",
   "platform": "web",
   "source": "web",
   "zone": true,
   "time_from": null,
   "time_to": null,
   "web_confirmed": false,
   "website": "http://www.dnopytle.cz/",
   "source_url": "http://www.dnopytle.cz/",
   "menu_date_web": null
  },
  {
   "id": "z-chixiaomian-50.0787",
   "name": "Chi Xiao Mian",
   "district": null,
   "address": null,
   "lat": 50.0787456,
   "lng": 14.4504225,
   "url": "https://chixiaomian.cz",
   "menu": [],
   "menu_status": "link",
   "menu_url": "https://chixiaomian.cz",
   "platform": "web",
   "source": "web",
   "zone": true,
   "time_from": null,
   "time_to": null,
   "web_confirmed": false,
   "website": "https://chixiaomian.cz",
   "source_url": "https://chixiaomian.cz",
   "menu_date_web": null
  },
  {
   "id": "z-pizzalab-50.0843",
   "name": "PizzaLab",
   "district": null,
   "address": null,
   "lat": 50.0843351,
   "lng": 14.4515881,
   "url": null,
   "menu": [],
   "menu_status": "none",
   "menu_url": null,
   "platform": "none",
   "source": "web",
   "zone": true,
   "time_from": null,
   "time_to": null,
   "web_confirmed": false,
   "website": null,
   "source_url": null,
   "menu_date_web": null
  },
  {
   "id": "z-behindthecourtain-50.0851",
   "name": "Behind the Courtain",
   "district": null,
   "address": null,
   "lat": 50.0850515,
   "lng": 14.4518274,
   "url": null,
   "menu": [],
   "menu_status": "none",
   "menu_url": null,
   "platform": "none",
   "source": "web",
   "zone": true,
   "time_from": null,
   "time_to": null,
   "web_confirmed": false,
   "website": null,
   "source_url": null,
   "menu_date_web": null
  },
  {
   "id": "z-pizzapresto63-50.0771",
   "name": "Pizza Presto 63",
   "district": null,
   "address": null,
   "lat": 50.0771183,
   "lng": 14.4427801,
   "url": null,
   "menu": [],
   "menu_status": "none",
   "menu_url": null,
   "platform": "none",
   "source": "web",
   "zone": true,
   "time_from": null,
   "time_to": null,
   "web_confirmed": false,
   "website": null,
   "source_url": null,
   "menu_date_web": null
  },
  {
   "id": "z-cernomorka-50.0799",
   "name": "Černomorka",
   "district": null,
   "address": null,
   "lat": 50.0798813,
   "lng": 14.4504164,
   "url": "https://cernomorka.choiceqr.com/section:poledni-menu",
   "menu": [],
   "menu_status": "link",
   "menu_url": "https://cernomorka.choiceqr.com/section:poledni-menu",
   "platform": "choiceqr",
   "source": "web",
   "zone": true,
   "time_from": null,
   "time_to": null,
   "web_confirmed": false,
   "website": "https://cernomorka.cz",
   "source_url": "https://cernomorka.choiceqr.com/section:poledni-menu",
   "menu_date_web": null
  },
  {
   "id": "z-lavicka-50.0844",
   "name": "Lavička",
   "district": null,
   "address": null,
   "lat": 50.084382,
   "lng": 14.4514308,
   "url": "https://www.restaurace-lavicka.cz/",
   "menu": [],
   "menu_status": "link",
   "menu_url": "https://www.restaurace-lavicka.cz/",
   "platform": "web",
   "source": "web",
   "zone": true,
   "time_from": null,
   "time_to": null,
   "web_confirmed": false,
   "website": "https://www.restaurace-lavicka.cz/",
   "source_url": "https://www.restaurace-lavicka.cz/",
   "menu_date_web": "2026-06-05"
  },
  {
   "id": "z-vapehouseprague-50.0822",
   "name": "Vape House Prague",
   "district": null,
   "address": null,
   "lat": 50.0821718,
   "lng": 14.4455537,
   "url": null,
   "menu": [],
   "menu_status": "none",
   "menu_url": null,
   "platform": "none",
   "source": "web",
   "zone": true,
   "time_from": null,
   "time_to": null,
   "web_confirmed": false,
   "website": null,
   "source_url": null,
   "menu_date_web": null
  },
  {
   "id": "z-pizzeriamestre-50.0822",
   "name": "Pizzeria Mestre",
   "district": null,
   "address": null,
   "lat": 50.0822069,
   "lng": 14.445976,
   "url": null,
   "menu": [],
   "menu_status": "none",
   "menu_url": null,
   "platform": "none",
   "source": "web",
   "zone": true,
   "time_from": null,
   "time_to": null,
   "web_confirmed": false,
   "website": null,
   "source_url": null,
   "menu_date_web": null
  },
  {
   "id": "z-friesies-50.077",
   "name": "Friesies",
   "district": null,
   "address": null,
   "lat": 50.0770307,
   "lng": 14.4495106,
   "url": "https://www.friesies.cz",
   "menu": [],
   "menu_status": "link",
   "menu_url": "https://www.friesies.cz",
   "platform": "web",
   "source": "web",
   "zone": true,
   "time_from": null,
   "time_to": null,
   "web_confirmed": false,
   "website": "https://www.friesies.cz",
   "source_url": "https://www.friesies.cz",
   "menu_date_web": null
  },
  {
   "id": "z-gilda-50.0787",
   "name": "Gilda",
   "district": null,
   "address": null,
   "lat": 50.0786594,
   "lng": 14.4508257,
   "url": "https://gilda.choiceqr.com/section:poledni-menu",
   "menu": [],
   "menu_status": "link",
   "menu_url": "https://gilda.choiceqr.com/section:poledni-menu",
   "platform": "choiceqr",
   "source": "web",
   "zone": true,
   "time_from": null,
   "time_to": null,
   "web_confirmed": false,
   "website": "https://www.kogo-gilda.cz/",
   "source_url": "https://gilda.choiceqr.com/section:poledni-menu",
   "menu_date_web": null
  },
  {
   "id": "z-modryzub-50.0761",
   "name": "Modrý zub",
   "district": null,
   "address": null,
   "lat": 50.0761121,
   "lng": 14.4471879,
   "url": "https://modryzub.choiceqr.com/section:poledni-menu",
   "menu": [],
   "menu_status": "link",
   "menu_url": "https://modryzub.choiceqr.com/section:poledni-menu",
   "platform": "choiceqr",
   "source": "web",
   "zone": true,
   "time_from": null,
   "time_to": null,
   "web_confirmed": false,
   "website": "https://www.modryzub.com/cz/",
   "source_url": "https://modryzub.choiceqr.com/section:poledni-menu",
   "menu_date_web": null
  },
  {
   "id": "z-pizzeriavendemaria-50.0844",
   "name": "Pizzeria Vendemaria",
   "district": null,
   "address": null,
   "lat": 50.0844041,
   "lng": 14.4511577,
   "url": "https://vendemaria.cz",
   "menu": [],
   "menu_status": "link",
   "menu_url": "https://vendemaria.cz",
   "platform": "web",
   "source": "web",
   "zone": true,
   "time_from": null,
   "time_to": null,
   "web_confirmed": false,
   "website": "https://vendemaria.cz",
   "source_url": "https://vendemaria.cz",
   "menu_date_web": null
  },
  {
   "id": "z-burritoloco-50.0771",
   "name": "Burrito Loco",
   "district": null,
   "address": null,
   "lat": 50.0770587,
   "lng": 14.449704,
   "url": "https://burritoloco.cz/",
   "menu": [],
   "menu_status": "link",
   "menu_url": "https://burritoloco.cz/",
   "platform": "web",
   "source": "web",
   "zone": true,
   "time_from": null,
   "time_to": null,
   "web_confirmed": false,
   "website": "https://burritoloco.cz/",
   "source_url": "https://burritoloco.cz/",
   "menu_date_web": null
  },
  {
   "id": "z-bohuzelbar-50.0835",
   "name": "Bohužel bar",
   "district": null,
   "address": null,
   "lat": 50.0834725,
   "lng": 14.4510897,
   "url": null,
   "menu": [],
   "menu_status": "none",
   "menu_url": null,
   "platform": "none",
   "source": "web",
   "zone": true,
   "time_from": null,
   "time_to": null,
   "web_confirmed": false,
   "website": null,
   "source_url": null,
   "menu_date_web": null
  },
  {
   "id": "z-kopyto-50.0823",
   "name": "Kopyto",
   "district": null,
   "address": null,
   "lat": 50.0823263,
   "lng": 14.4452029,
   "url": null,
   "menu": [],
   "menu_status": "none",
   "menu_url": null,
   "platform": "none",
   "source": "web",
   "zone": true,
   "time_from": null,
   "time_to": null,
   "web_confirmed": false,
   "website": null,
   "source_url": null,
   "menu_date_web": null
  },
  {
   "id": "z-pivotekazizkoff-50.0848",
   "name": "Pivoteka ŽižkOFF",
   "district": null,
   "address": null,
   "lat": 50.0847602,
   "lng": 14.4510837,
   "url": "http://www.praguebeeracademy.com/cz/pivni-klub.html",
   "menu": [],
   "menu_status": "link",
   "menu_url": "http://www.praguebeeracademy.com/cz/pivni-klub.html",
   "platform": "web",
   "source": "web",
   "zone": true,
   "time_from": null,
   "time_to": null,
   "web_confirmed": false,
   "website": "http://www.praguebeeracademy.com/cz/pivni-klub.html",
   "source_url": "http://www.praguebeeracademy.com/cz/pivni-klub.html",
   "menu_date_web": null
  },
  {
   "id": "z-uhoudku-50.0824",
   "name": "U Houdků",
   "district": null,
   "address": null,
   "lat": 50.0824314,
   "lng": 14.4457779,
   "url": "https://uhoudku.com",
   "menu": [],
   "menu_status": "link",
   "menu_url": "https://uhoudku.com",
   "platform": "web",
   "source": "web",
   "zone": true,
   "time_from": null,
   "time_to": null,
   "web_confirmed": false,
   "website": "https://uhoudku.com",
   "source_url": "https://uhoudku.com",
   "menu_date_web": "2026-06-05"
  },
  {
   "id": "z-pivnilokalostry-50.0845",
   "name": "Pivní lokál Ostrý",
   "district": null,
   "address": null,
   "lat": 50.084451,
   "lng": 14.4508799,
   "url": null,
   "menu": [],
   "menu_status": "none",
   "menu_url": null,
   "platform": "none",
   "source": "web",
   "zone": true,
   "time_from": null,
   "time_to": null,
   "web_confirmed": false,
   "website": null,
   "source_url": null,
   "menu_date_web": null
  },
  {
   "id": "z-dastarkhan-50.0872",
   "name": "Dastarkhan",
   "district": null,
   "address": null,
   "lat": 50.0872382,
   "lng": 14.4543671,
   "url": null,
   "menu": [],
   "menu_status": "none",
   "menu_url": null,
   "platform": "none",
   "source": "web",
   "zone": true,
   "time_from": null,
   "time_to": null,
   "web_confirmed": false,
   "website": null,
   "source_url": null,
   "menu_date_web": null
  },
  {
   "id": "z-ukrouzku-50.0846",
   "name": "U Kroužků",
   "district": null,
   "address": null,
   "lat": 50.0846047,
   "lng": 14.4507261,
   "url": null,
   "menu": [],
   "menu_status": "none",
   "menu_url": null,
   "platform": "none",
   "source": "web",
   "zone": true,
   "time_from": null,
   "time_to": null,
   "web_confirmed": false,
   "website": null,
   "source_url": null,
   "menu_date_web": null
  },
  {
   "id": "z-hasususchi-50.079",
   "name": "Ha Su Suschi",
   "district": null,
   "address": null,
   "lat": 50.078979,
   "lng": 14.4514641,
   "url": null,
   "menu": [],
   "menu_status": "none",
   "menu_url": null,
   "platform": "none",
   "source": "web",
   "zone": true,
   "time_from": null,
   "time_to": null,
   "web_confirmed": false,
   "website": null,
   "source_url": null,
   "menu_date_web": null
  },
  {
   "id": "z-belzepub-50.0825",
   "name": "Belzepub",
   "district": null,
   "address": null,
   "lat": 50.0824881,
   "lng": 14.444303,
   "url": "https://www.belzepub.cz/",
   "menu": [],
   "menu_status": "link",
   "menu_url": "https://www.belzepub.cz/",
   "platform": "web",
   "source": "web",
   "zone": true,
   "time_from": null,
   "time_to": null,
   "web_confirmed": false,
   "website": "https://www.belzepub.cz/",
   "source_url": "https://www.belzepub.cz/",
   "menu_date_web": null
  },
  {
   "id": "z-miminoo-50.081",
   "name": "Miminoo",
   "district": null,
   "address": null,
   "lat": 50.0809893,
   "lng": 14.4507026,
   "url": "http://towerpark.cz/miminoo-garden-restaurant+11",
   "menu": [],
   "menu_status": "link",
   "menu_url": "http://towerpark.cz/miminoo-garden-restaurant+11",
   "platform": "none",
   "source": "web",
   "zone": true,
   "time_from": null,
   "time_to": null,
   "web_confirmed": false,
   "website": "http://towerpark.cz/miminoo-garden-restaurant+11",
   "source_url": "http://towerpark.cz/miminoo-garden-restaurant+11",
   "menu_date_web": null
  },
  {
   "id": "z-kralovstvi-50.0822",
   "name": "Království",
   "district": null,
   "address": null,
   "lat": 50.0821624,
   "lng": 14.4512012,
   "url": null,
   "menu": [],
   "menu_status": "none",
   "menu_url": null,
   "platform": "none",
   "source": "web",
   "zone": true,
   "time_from": null,
   "time_to": null,
   "web_confirmed": false,
   "website": null,
   "source_url": null,
   "menu_date_web": null
  },
  {
   "id": "z-frenchtacos-50.0874",
   "name": "French Tacos",
   "district": null,
   "address": null,
   "lat": 50.0874323,
   "lng": 14.4546466,
   "url": null,
   "menu": [],
   "menu_status": "none",
   "menu_url": null,
   "platform": "none",
   "source": "web",
   "zone": true,
   "time_from": null,
   "time_to": null,
   "web_confirmed": false,
   "website": null,
   "source_url": null,
   "menu_date_web": null
  },
  {
   "id": "z-pizzagattonero-50.0795",
   "name": "PIZZA GATTO NERO",
   "district": null,
   "address": null,
   "lat": 50.0795192,
   "lng": 14.4515893,
   "url": "https://gattonero.choiceqr.com/section:poledni-menu",
   "menu": [],
   "menu_status": "link",
   "menu_url": "https://gattonero.choiceqr.com/section:poledni-menu",
   "platform": "choiceqr",
   "source": "web",
   "zone": true,
   "time_from": null,
   "time_to": null,
   "web_confirmed": false,
   "website": "https://pizzagattonero.cz",
   "source_url": "https://gattonero.choiceqr.com/section:poledni-menu",
   "menu_date_web": null
  },
  {
   "id": "z-krocoffeebakery-50.0771",
   "name": "Kro Coffee and Bakery",
   "district": null,
   "address": null,
   "lat": 50.0771199,
   "lng": 14.4506553,
   "url": "https://www.krokitchen.cz/",
   "menu": [],
   "menu_status": "link",
   "menu_url": "https://www.krokitchen.cz/",
   "platform": "web",
   "source": "web",
   "zone": true,
   "time_from": null,
   "time_to": null,
   "web_confirmed": false,
   "website": "https://www.krokitchen.cz/",
   "source_url": "https://www.krokitchen.cz/",
   "menu_date_web": null
  },
  {
   "id": "z-guston-50.0868",
   "name": "Guston",
   "district": null,
   "address": null,
   "lat": 50.0867697,
   "lng": 14.452441,
   "url": null,
   "menu": [],
   "menu_status": "none",
   "menu_url": null,
   "platform": "none",
   "source": "web",
   "zone": true,
   "time_from": null,
   "time_to": null,
   "web_confirmed": false,
   "website": null,
   "source_url": null,
   "menu_date_web": null
  },
  {
   "id": "z-thedownunder-50.0769",
   "name": "The Down Under",
   "district": null,
   "address": null,
   "lat": 50.0768931,
   "lng": 14.4416245,
   "url": "https://downunder.cz/",
   "menu": [],
   "menu_status": "link",
   "menu_url": "https://downunder.cz/",
   "platform": "web",
   "source": "web",
   "zone": true,
   "time_from": null,
   "time_to": null,
   "web_confirmed": false,
   "website": "https://downunder.cz/",
   "source_url": "https://downunder.cz/",
   "menu_date_web": null
  },
  {
   "id": "z-croqnroll-50.0875",
   "name": "Croq'n'Roll",
   "district": null,
   "address": null,
   "lat": 50.0875298,
   "lng": 14.4548272,
   "url": null,
   "menu": [],
   "menu_status": "none",
   "menu_url": null,
   "platform": "none",
   "source": "web",
   "zone": true,
   "time_from": null,
   "time_to": null,
   "web_confirmed": false,
   "website": null,
   "source_url": null,
   "menu_date_web": null
  },
  {
   "id": "z-pizzeriegiallorossailf-50.0771",
   "name": "Pizzerie Giallorossa Il Fastfood",
   "district": null,
   "address": null,
   "lat": 50.0771285,
   "lng": 14.4507961,
   "url": "https://www.giallorossa.cz/denni-menu/",
   "menu": [],
   "menu_status": "link",
   "menu_url": "https://www.giallorossa.cz/denni-menu/",
   "platform": "generic",
   "source": "web",
   "zone": true,
   "time_from": null,
   "time_to": null,
   "web_confirmed": false,
   "website": "https://www.giallorossa.cz/",
   "source_url": "https://www.giallorossa.cz/denni-menu/",
   "menu_date_web": null
  },
  {
   "id": "z-donerkebabzizkov-50.0845",
   "name": "Döner Kebab Žižkov",
   "district": null,
   "address": null,
   "lat": 50.0845026,
   "lng": 14.4503445,
   "url": "http://www.kebabzizkov.cz",
   "menu": [],
   "menu_status": "link",
   "menu_url": "http://www.kebabzizkov.cz",
   "platform": "web",
   "source": "web",
   "zone": true,
   "time_from": null,
   "time_to": null,
   "web_confirmed": false,
   "website": "http://www.kebabzizkov.cz",
   "source_url": "http://www.kebabzizkov.cz",
   "menu_date_web": null
  },
  {
   "id": "z-bursaiskenderkebap-50.0873",
   "name": "Bursa Iskender Kebap",
   "district": null,
   "address": null,
   "lat": 50.0872566,
   "lng": 14.4534664,
   "url": null,
   "menu": [],
   "menu_status": "none",
   "menu_url": null,
   "platform": "none",
   "source": "web",
   "zone": true,
   "time_from": null,
   "time_to": null,
   "web_confirmed": false,
   "website": null,
   "source_url": null,
   "menu_date_web": null
  },
  {
   "id": "z-kavarnanasumave-50.0758",
   "name": "Kavarna Na Šumavě",
   "district": null,
   "address": null,
   "lat": 50.075763,
   "lng": 14.4437591,
   "url": "https://www.kavarnanasumave.cz/",
   "menu": [],
   "menu_status": "link",
   "menu_url": "https://www.kavarnanasumave.cz/",
   "platform": "none",
   "source": "web",
   "zone": true,
   "time_from": null,
   "time_to": null,
   "web_confirmed": false,
   "website": "https://www.kavarnanasumave.cz/",
   "source_url": "https://www.kavarnanasumave.cz/",
   "menu_date_web": null
  },
  {
   "id": "z-burgerybublinky-50.0875",
   "name": "Burgery & Bublinky",
   "district": null,
   "address": null,
   "lat": 50.0874631,
   "lng": 14.454204,
   "url": null,
   "menu": [],
   "menu_status": "none",
   "menu_url": null,
   "platform": "none",
   "source": "web",
   "zone": true,
   "time_from": null,
   "time_to": null,
   "web_confirmed": false,
   "website": null,
   "source_url": null,
   "menu_date_web": null
  },
  {
   "id": "z-herbacafe-50.0834",
   "name": "Herba café",
   "district": null,
   "address": null,
   "lat": 50.0834291,
   "lng": 14.4502785,
   "url": null,
   "menu": [],
   "menu_status": "none",
   "menu_url": null,
   "platform": "none",
   "source": "web",
   "zone": true,
   "time_from": null,
   "time_to": null,
   "web_confirmed": false,
   "website": null,
   "source_url": null,
   "menu_date_web": null
  },
  {
   "id": "z-oblaca-50.081",
   "name": "Oblaca",
   "district": null,
   "address": null,
   "lat": 50.0809576,
   "lng": 14.4510839,
   "url": "https://www.towerpark.cz/oblaca-restaurant/",
   "menu": [],
   "menu_status": "link",
   "menu_url": "https://www.towerpark.cz/oblaca-restaurant/",
   "platform": "none",
   "source": "web",
   "zone": true,
   "time_from": null,
   "time_to": null,
   "web_confirmed": false,
   "website": "https://www.towerpark.cz/oblaca-restaurant/",
   "source_url": "https://www.towerpark.cz/oblaca-restaurant/",
   "menu_date_web": null
  },
  {
   "id": "z-chillilime-50.0804",
   "name": "Chilli & lime",
   "district": null,
   "address": null,
   "lat": 50.0804166,
   "lng": 14.4542752,
   "url": "https://chilliandlime.choiceqr.com/section:poledni-menu",
   "menu": [
    {
     "text": "M1 - PHO TRON GA",
     "price": "199 Kč"
    },
    {
     "text": "M1 Veggie - PHO TRON DAU",
     "price": "199 Kč"
    },
    {
     "text": "M2 - BEEF MASSAMAN CURRY",
     "price": "209 Kč"
    }
   ],
   "menu_status": "scraped",
   "menu_url": "https://chilliandlime.choiceqr.com/section:poledni-menu",
   "platform": "choiceqr",
   "source": "web",
   "zone": true,
   "time_from": null,
   "time_to": null,
   "web_confirmed": false,
   "website": "https://chilliandlime.choiceqr.com",
   "source_url": "https://chilliandlime.choiceqr.com/section:poledni-menu",
   "menu_date_web": null
  },
  {
   "id": "z-hongyuan-50.0755",
   "name": "Hong Yuan",
   "district": null,
   "address": null,
   "lat": 50.0754651,
   "lng": 14.4448176,
   "url": null,
   "menu": [],
   "menu_status": "none",
   "menu_url": null,
   "platform": "none",
   "source": "web",
   "zone": true,
   "time_from": null,
   "time_to": null,
   "web_confirmed": false,
   "website": null,
   "source_url": null,
   "menu_date_web": null
  },
  {
   "id": "z-wangfujing-50.0761",
   "name": "Wang Fu Jing",
   "district": null,
   "address": null,
   "lat": 50.0761288,
   "lng": 14.4425011,
   "url": null,
   "menu": [],
   "menu_status": "none",
   "menu_url": null,
   "platform": "none",
   "source": "web",
   "zone": true,
   "time_from": null,
   "time_to": null,
   "web_confirmed": false,
   "website": null,
   "source_url": null,
   "menu_date_web": null
  },
  {
   "id": "z-palacakropolis-50.0824",
   "name": "Palác Akropolis",
   "district": null,
   "address": null,
   "lat": 50.0824195,
   "lng": 14.4490198,
   "url": "https://www.palacakropolis.cz/",
   "menu": [],
   "menu_status": "link",
   "menu_url": "https://www.palacakropolis.cz/",
   "platform": "web",
   "source": "web",
   "zone": true,
   "time_from": null,
   "time_to": null,
   "web_confirmed": false,
   "website": "https://www.palacakropolis.cz/",
   "source_url": "https://www.palacakropolis.cz/",
   "menu_date_web": null
  },
  {
   "id": "z-bistro66-50.081",
   "name": "Bistro 66",
   "district": null,
   "address": null,
   "lat": 50.081042,
   "lng": 14.4511472,
   "url": null,
   "menu": [],
   "menu_status": "none",
   "menu_url": null,
   "platform": "none",
   "source": "web",
   "zone": true,
   "time_from": null,
   "time_to": null,
   "web_confirmed": false,
   "website": null,
   "source_url": null,
   "menu_date_web": null
  },
  {
   "id": "z-pizzabertoldi-50.0759",
   "name": "Pizza Bertoldi",
   "district": null,
   "address": null,
   "lat": 50.0759208,
   "lng": 14.4491831,
   "url": "https://www.pizzabertoldi.cz",
   "menu": [],
   "menu_status": "link",
   "menu_url": "https://www.pizzabertoldi.cz",
   "platform": "web",
   "source": "web",
   "zone": true,
   "time_from": null,
   "time_to": null,
   "web_confirmed": false,
   "website": "https://www.pizzabertoldi.cz",
   "source_url": "https://www.pizzabertoldi.cz",
   "menu_date_web": null
  },
  {
   "id": "z-morava-50.0828",
   "name": "Morava",
   "district": null,
   "address": null,
   "lat": 50.082837,
   "lng": 14.4475319,
   "url": null,
   "menu": [],
   "menu_status": "none",
   "menu_url": null,
   "platform": "none",
   "source": "web",
   "zone": true,
   "time_from": null,
   "time_to": null,
   "web_confirmed": false,
   "website": null,
   "source_url": null,
   "menu_date_web": null
  },
  {
   "id": "z-pokesushiwok-50.0766",
   "name": "Poke sushi wok",
   "district": null,
   "address": null,
   "lat": 50.0766489,
   "lng": 14.4505304,
   "url": null,
   "menu": [],
   "menu_status": "none",
   "menu_url": null,
   "platform": "none",
   "source": "web",
   "zone": true,
   "time_from": null,
   "time_to": null,
   "web_confirmed": false,
   "website": null,
   "source_url": null,
   "menu_date_web": null
  },
  {
   "id": "z-musicpubwoodoo-50.0832",
   "name": "Music pub woodoo",
   "district": null,
   "address": null,
   "lat": 50.0832317,
   "lng": 14.4501288,
   "url": "http://www.bamboopub.cz/o-woodoo",
   "menu": [],
   "menu_status": "link",
   "menu_url": "http://www.bamboopub.cz/o-woodoo",
   "platform": "web",
   "source": "web",
   "zone": true,
   "time_from": null,
   "time_to": null,
   "web_confirmed": false,
   "website": "http://www.bamboopub.cz/o-woodoo",
   "source_url": "http://www.bamboopub.cz/o-woodoo",
   "menu_date_web": null
  },
  {
   "id": "z-uficku-50.0829",
   "name": "U Fíčků",
   "district": null,
   "address": null,
   "lat": 50.0829196,
   "lng": 14.4471568,
   "url": null,
   "menu": [],
   "menu_status": "none",
   "menu_url": null,
   "platform": "none",
   "source": "web",
   "zone": true,
   "time_from": null,
   "time_to": null,
   "web_confirmed": false,
   "website": null,
   "source_url": null,
   "menu_date_web": null
  },
  {
   "id": "z-cinskebistrojia-50.0878",
   "name": "Čínské bistro Jia",
   "district": null,
   "address": null,
   "lat": 50.0878133,
   "lng": 14.4563363,
   "url": null,
   "menu": [],
   "menu_status": "none",
   "menu_url": null,
   "platform": "none",
   "source": "web",
   "zone": true,
   "time_from": null,
   "time_to": null,
   "web_confirmed": false,
   "website": null,
   "source_url": null,
   "menu_date_web": null
  },
  {
   "id": "z-lokalkorunni-50.0755",
   "name": "Lokál Korunní",
   "district": null,
   "address": null,
   "lat": 50.0754831,
   "lng": 14.4441051,
   "url": "https://www.korunni.lokal.cz/",
   "menu": [],
   "menu_status": "link",
   "menu_url": "https://www.korunni.lokal.cz/",
   "platform": "web",
   "source": "web",
   "zone": true,
   "time_from": null,
   "time_to": null,
   "web_confirmed": false,
   "website": "https://www.korunni.lokal.cz/",
   "source_url": "https://www.korunni.lokal.cz/",
   "menu_date_web": null
  },
  {
   "id": "z-shromazdiste-50.083",
   "name": "Shromaždiště",
   "district": null,
   "address": null,
   "lat": 50.0829992,
   "lng": 14.4471257,
   "url": "https://shromazdiste.business.site/",
   "menu": [],
   "menu_status": "link",
   "menu_url": "https://shromazdiste.business.site/",
   "platform": "none",
   "source": "web",
   "zone": true,
   "time_from": null,
   "time_to": null,
   "web_confirmed": false,
   "website": "https://shromazdiste.business.site/",
   "source_url": "https://shromazdiste.business.site/",
   "menu_date_web": null
  },
  {
   "id": "z-lumbini-50.0879",
   "name": "Lumbini",
   "district": null,
   "address": null,
   "lat": 50.0879179,
   "lng": 14.4566253,
   "url": null,
   "menu": [],
   "menu_status": "none",
   "menu_url": null,
   "platform": "none",
   "source": "web",
   "zone": true,
   "time_from": null,
   "time_to": null,
   "web_confirmed": false,
   "website": null,
   "source_url": null,
   "menu_date_web": null
  },
  {
   "id": "z-creperiemirakulum-50.0783",
   "name": "Creperie Mirakulum",
   "district": null,
   "address": null,
   "lat": 50.0782966,
   "lng": 14.4520739,
   "url": null,
   "menu": [],
   "menu_status": "none",
   "menu_url": null,
   "platform": "none",
   "source": "web",
   "zone": true,
   "time_from": null,
   "time_to": null,
   "web_confirmed": false,
   "website": null,
   "source_url": null,
   "menu_date_web": null
  },
  {
   "id": "z-blackgarden-50.0752",
   "name": "Black Garden",
   "district": null,
   "address": null,
   "lat": 50.0751931,
   "lng": 14.4453031,
   "url": null,
   "menu": [],
   "menu_status": "none",
   "menu_url": null,
   "platform": "none",
   "source": "web",
   "zone": true,
   "time_from": null,
   "time_to": null,
   "web_confirmed": false,
   "website": null,
   "source_url": null,
   "menu_date_web": null
  },
  {
   "id": "z-porke-50.0824",
   "name": "Porke",
   "district": null,
   "address": null,
   "lat": 50.0823758,
   "lng": 14.4502785,
   "url": "https://www.porke.cz/",
   "menu": [],
   "menu_status": "link",
   "menu_url": "https://www.porke.cz/",
   "platform": "web",
   "source": "web",
   "zone": true,
   "time_from": null,
   "time_to": null,
   "web_confirmed": false,
   "website": "https://www.porke.cz/",
   "source_url": "https://www.porke.cz/",
   "menu_date_web": "2026-06-05"
  },
  {
   "id": "z-vanspho-50.0764",
   "name": "Van's Pho",
   "district": null,
   "address": null,
   "lat": 50.0764097,
   "lng": 14.4506189,
   "url": null,
   "menu": [],
   "menu_status": "none",
   "menu_url": null,
   "platform": "none",
   "source": "web",
   "zone": true,
   "time_from": null,
   "time_to": null,
   "web_confirmed": false,
   "website": null,
   "source_url": null,
   "menu_date_web": null
  },
  {
   "id": "z-devetmraku-50.0781",
   "name": "Devět mraků",
   "district": null,
   "address": null,
   "lat": 50.0781268,
   "lng": 14.4521662,
   "url": "https://devetmraku.cz/denni-menu/",
   "menu": [],
   "menu_status": "link",
   "menu_url": "https://devetmraku.cz/denni-menu/",
   "platform": "generic",
   "source": "web",
   "zone": true,
   "time_from": null,
   "time_to": null,
   "web_confirmed": false,
   "website": "https://www.devetmraku.cz",
   "source_url": "https://devetmraku.cz/denni-menu/",
   "menu_date_web": null
  },
  {
   "id": "z-lasagneria-50.0755",
   "name": "Lasagneria",
   "district": null,
   "address": null,
   "lat": 50.0754525,
   "lng": 14.4433792,
   "url": "https://www.lasagneria.cz/",
   "menu": [],
   "menu_status": "link",
   "menu_url": "https://www.lasagneria.cz/",
   "platform": "web",
   "source": "web",
   "zone": true,
   "time_from": null,
   "time_to": null,
   "web_confirmed": false,
   "website": "https://www.lasagneria.cz/",
   "source_url": "https://www.lasagneria.cz/",
   "menu_date_web": null
  },
  {
   "id": "z-thirdcoastpizza-50.0824",
   "name": "Third Coast Pizza",
   "district": null,
   "address": null,
   "lat": 50.0823723,
   "lng": 14.449943,
   "url": "https://thirdcoastpizza.choiceqr.com/section:poledni-menu",
   "menu": [],
   "menu_status": "link",
   "menu_url": "https://thirdcoastpizza.choiceqr.com/section:poledni-menu",
   "platform": "choiceqr",
   "source": "web",
   "zone": true,
   "time_from": null,
   "time_to": null,
   "web_confirmed": false,
   "website": "https://thirdcoastpizza.cz",
   "source_url": "https://thirdcoastpizza.choiceqr.com/section:poledni-menu",
   "menu_date_web": null
  },
  {
   "id": "z-hospudkanadviktorkou-50.0829",
   "name": "Hospůdka Nad Viktorkou",
   "district": null,
   "address": null,
   "lat": 50.0828715,
   "lng": 14.4486907,
   "url": "https://www.nadviktorkou.cz/",
   "menu": [],
   "menu_status": "link",
   "menu_url": "https://www.nadviktorkou.cz/",
   "platform": "none",
   "source": "web",
   "zone": true,
   "time_from": null,
   "time_to": null,
   "web_confirmed": false,
   "website": "https://www.nadviktorkou.cz/",
   "source_url": "https://www.nadviktorkou.cz/",
   "menu_date_web": null
  },
  {
   "id": "z-sou100-50.0854",
   "name": "SOU100",
   "district": null,
   "address": null,
   "lat": 50.0853797,
   "lng": 14.449984,
   "url": null,
   "menu": [],
   "menu_status": "none",
   "menu_url": null,
   "platform": "none",
   "source": "web",
   "zone": true,
   "time_from": null,
   "time_to": null,
   "web_confirmed": false,
   "website": null,
   "source_url": null,
   "menu_date_web": null
  },
  {
   "id": "z-automatmatuskajzp-50.0781",
   "name": "Automat Matuška JZP",
   "district": null,
   "address": null,
   "lat": 50.0780928,
   "lng": 14.4522308,
   "url": "https://automatmatuska.cz/jzp/",
   "menu": [],
   "menu_status": "link",
   "menu_url": "https://automatmatuska.cz/jzp/",
   "platform": "web",
   "source": "web",
   "zone": true,
   "time_from": null,
   "time_to": null,
   "web_confirmed": false,
   "website": "https://automatmatuska.cz/jzp/",
   "source_url": "https://automatmatuska.cz/jzp/",
   "menu_date_web": null
  },
  {
   "id": "z-levitate-50.0775",
   "name": "Levitate",
   "district": null,
   "address": null,
   "lat": 50.0774573,
   "lng": 14.4401755,
   "url": "https://levitate.cz/",
   "menu": [],
   "menu_status": "link",
   "menu_url": "https://levitate.cz/",
   "platform": "web",
   "source": "web",
   "zone": true,
   "time_from": null,
   "time_to": null,
   "web_confirmed": false,
   "website": "https://levitate.cz/",
   "source_url": "https://levitate.cz/",
   "menu_date_web": null
  },
  {
   "id": "z-azadkebab-50.0846",
   "name": "Azad Kebab",
   "district": null,
   "address": null,
   "lat": 50.0845998,
   "lng": 14.449613,
   "url": null,
   "menu": [],
   "menu_status": "none",
   "menu_url": null,
   "platform": "none",
   "source": "web",
   "zone": true,
   "time_from": null,
   "time_to": null,
   "web_confirmed": false,
   "website": null,
   "source_url": null,
   "menu_date_web": null
  },
  {
   "id": "z-thepind-50.0756",
   "name": "The Pind",
   "district": null,
   "address": null,
   "lat": 50.0755591,
   "lng": 14.4492449,
   "url": "https://thepind.cz",
   "menu": [],
   "menu_status": "link",
   "menu_url": "https://thepind.cz",
   "platform": "web",
   "source": "web",
   "zone": true,
   "time_from": null,
   "time_to": null,
   "web_confirmed": false,
   "website": "https://thepind.cz",
   "source_url": "https://thepind.cz",
   "menu_date_web": "2026-06-05"
  },
  {
   "id": "z-taikoramenbar-50.0874",
   "name": "Taiko Ramen Bar",
   "district": null,
   "address": null,
   "lat": 50.0874131,
   "lng": 14.4523471,
   "url": "https://taiko-ramen.cz",
   "menu": [],
   "menu_status": "link",
   "menu_url": "https://taiko-ramen.cz",
   "platform": "web",
   "source": "web",
   "zone": true,
   "time_from": null,
   "time_to": null,
   "web_confirmed": false,
   "website": "https://taiko-ramen.cz",
   "source_url": "https://taiko-ramen.cz",
   "menu_date_web": null
  },
  {
   "id": "z-madrunner-50.0871",
   "name": "Mad runner",
   "district": null,
   "address": null,
   "lat": 50.0871248,
   "lng": 14.4517563,
   "url": "https://www.madrunner.eu",
   "menu": [],
   "menu_status": "link",
   "menu_url": "https://www.madrunner.eu",
   "platform": "web",
   "source": "web",
   "zone": true,
   "time_from": null,
   "time_to": null,
   "web_confirmed": false,
   "website": "https://www.madrunner.eu",
   "source_url": "https://www.madrunner.eu",
   "menu_date_web": null
  },
  {
   "id": "z-blackbullkebabpizza-50.0775",
   "name": "Black Bull Kebab & Pizza",
   "district": null,
   "address": null,
   "lat": 50.0775323,
   "lng": 14.4400135,
   "url": null,
   "menu": [],
   "menu_status": "none",
   "menu_url": null,
   "platform": "none",
   "source": "web",
   "zone": true,
   "time_from": null,
   "time_to": null,
   "web_confirmed": false,
   "website": null,
   "source_url": null,
   "menu_date_web": null
  },
  {
   "id": "z-sushisushi-50.0844",
   "name": "Sushi Sushi",
   "district": null,
   "address": null,
   "lat": 50.0844227,
   "lng": 14.4494912,
   "url": "https://sushisushi.cz/poledni-menu",
   "menu": [],
   "menu_status": "link",
   "menu_url": "https://sushisushi.cz/poledni-menu",
   "platform": "generic",
   "source": "web",
   "zone": true,
   "time_from": null,
   "time_to": null,
   "web_confirmed": false,
   "website": "https://sushisushi.cz",
   "source_url": "https://sushisushi.cz/poledni-menu",
   "menu_date_web": "2026-06-05"
  },
  {
   "id": "z-areparna-50.0834",
   "name": "Areparna",
   "district": null,
   "address": null,
   "lat": 50.083352,
   "lng": 14.4459664,
   "url": "https://areparnaprague.choiceqr.com/section:poledni-menu",
   "menu": [],
   "menu_status": "link",
   "menu_url": "https://areparnaprague.choiceqr.com/section:poledni-menu",
   "platform": "choiceqr",
   "source": "web",
   "zone": true,
   "time_from": null,
   "time_to": null,
   "web_confirmed": false,
   "website": "https://areparna.com/",
   "source_url": "https://areparnaprague.choiceqr.com/section:poledni-menu",
   "menu_date_web": null
  },
  {
   "id": "z-korunka-50.0752",
   "name": "Korunka",
   "district": null,
   "address": null,
   "lat": 50.075223,
   "lng": 14.4436708,
   "url": null,
   "menu": [],
   "menu_status": "none",
   "menu_url": null,
   "platform": "none",
   "source": "web",
   "zone": true,
   "time_from": null,
   "time_to": null,
   "web_confirmed": false,
   "website": null,
   "source_url": null,
   "menu_date_web": null
  },
  {
   "id": "z-bar26-50.0797",
   "name": "Bar \"26\"",
   "district": null,
   "address": null,
   "lat": 50.0797335,
   "lng": 14.4554411,
   "url": null,
   "menu": [],
   "menu_status": "none",
   "menu_url": null,
   "platform": "none",
   "source": "web",
   "zone": true,
   "time_from": null,
   "time_to": null,
   "web_confirmed": false,
   "website": null,
   "source_url": null,
   "menu_date_web": null
  },
  {
   "id": "z-lasadelitas-50.0786",
   "name": "Las Adelitas",
   "district": null,
   "address": null,
   "lat": 50.0786126,
   "lng": 14.4526058,
   "url": "https://www.lasadelitas.cz/denni-menu/",
   "menu": [],
   "menu_status": "link",
   "menu_url": "https://www.lasadelitas.cz/denni-menu/",
   "platform": "generic",
   "source": "web",
   "zone": true,
   "time_from": null,
   "time_to": null,
   "web_confirmed": false,
   "website": "https://www.lasadelitas.cz",
   "source_url": "https://www.lasadelitas.cz/denni-menu/",
   "menu_date_web": null
  },
  {
   "id": "z-naradhosti-50.0797",
   "name": "Na Radhošti",
   "district": null,
   "address": null,
   "lat": 50.0796963,
   "lng": 14.4560031,
   "url": null,
   "menu": [],
   "menu_status": "none",
   "menu_url": null,
   "platform": "none",
   "source": "web",
   "zone": true,
   "time_from": null,
   "time_to": null,
   "web_confirmed": false,
   "website": null,
   "source_url": null,
   "menu_date_web": null
  },
  {
   "id": "z-asianrestaurant-50.0797",
   "name": "Asian Restaurant",
   "district": null,
   "address": null,
   "lat": 50.0797049,
   "lng": 14.455219,
   "url": null,
   "menu": [],
   "menu_status": "none",
   "menu_url": null,
   "platform": "none",
   "source": "web",
   "zone": true,
   "time_from": null,
   "time_to": null,
   "web_confirmed": false,
   "website": null,
   "source_url": null,
   "menu_date_web": null
  },
  {
   "id": "z-kiin-50.0797",
   "name": "Kiin",
   "district": null,
   "address": null,
   "lat": 50.0796951,
   "lng": 14.4551759,
   "url": "www.kiin.cz",
   "menu": [],
   "menu_status": "link",
   "menu_url": "www.kiin.cz",
   "platform": "none",
   "source": "web",
   "zone": true,
   "time_from": null,
   "time_to": null,
   "web_confirmed": false,
   "website": "www.kiin.cz",
   "source_url": "www.kiin.cz",
   "menu_date_web": null
  },
  {
   "id": "z-elcamino-50.0793",
   "name": "El Camino",
   "district": null,
   "address": null,
   "lat": 50.0793151,
   "lng": 14.4527534,
   "url": "https://www.elcaminotapas.cz/jidelnilistek",
   "menu": [],
   "menu_status": "link",
   "menu_url": "https://www.elcaminotapas.cz/jidelnilistek",
   "platform": "generic",
   "source": "web",
   "zone": true,
   "time_from": null,
   "time_to": null,
   "web_confirmed": false,
   "website": "https://www.elcaminotapas.cz/",
   "source_url": "https://www.elcaminotapas.cz/jidelnilistek",
   "menu_date_web": null
  },
  {
   "id": "z-ianasushihouse-50.0796",
   "name": "Iana Sushi House",
   "district": null,
   "address": null,
   "lat": 50.079558,
   "lng": 14.4528384,
   "url": "https://www.hana-sushihouse.cz/",
   "menu": [],
   "menu_status": "link",
   "menu_url": "https://www.hana-sushihouse.cz/",
   "platform": "web",
   "source": "web",
   "zone": true,
   "time_from": null,
   "time_to": null,
   "web_confirmed": false,
   "website": "https://www.hana-sushihouse.cz/",
   "source_url": "https://www.hana-sushihouse.cz/",
   "menu_date_web": null
  },
  {
   "id": "z-utelleru-50.0772",
   "name": "U Tellerů",
   "district": null,
   "address": null,
   "lat": 50.0771791,
   "lng": 14.4521443,
   "url": "https://utelleru.choiceqr.com/section:poledni-menu",
   "menu": [
    {
     "text": "HOVĚZÍ VÝVAR S CELESTÝNSKÝMI NUDLEMI",
     "price": "59 Kč"
    },
    {
     "text": "2.\tRAJSKÁ OMÁČKA s vařeným hovězím masem, domácí houskové knedlíky",
     "price": "189 Kč"
    },
    {
     "text": "3.\tVEPŘOVÉ RIZOTO z bulguru s uzeným sýrem, kyseká okurka",
     "price": "179 Kč"
    }
   ],
   "menu_status": "scraped",
   "menu_url": "https://utelleru.choiceqr.com/section:poledni-menu",
   "platform": "choiceqr",
   "source": "web",
   "zone": true,
   "time_from": null,
   "time_to": null,
   "web_confirmed": false,
   "website": "https://utelleru.cz",
   "source_url": "https://utelleru.choiceqr.com/section:poledni-menu",
   "menu_date_web": null
  },
  {
   "id": "z-phofamily-50.0764",
   "name": "Phở family",
   "district": null,
   "address": null,
   "lat": 50.0763541,
   "lng": 14.4406889,
   "url": null,
   "menu": [],
   "menu_status": "none",
   "menu_url": null,
   "platform": "none",
   "source": "web",
   "zone": true,
   "time_from": null,
   "time_to": null,
   "web_confirmed": false,
   "website": null,
   "source_url": null,
   "menu_date_web": null
  },
  {
   "id": "z-pohoda-50.0799",
   "name": "Pohoda",
   "district": null,
   "address": null,
   "lat": 50.0798534,
   "lng": 14.458593,
   "url": "https://pohoda.cz",
   "menu": [],
   "menu_status": "link",
   "menu_url": "https://pohoda.cz",
   "platform": "web",
   "source": "web",
   "zone": true,
   "time_from": null,
   "time_to": null,
   "web_confirmed": false,
   "website": "https://pohoda.cz",
   "source_url": "https://pohoda.cz",
   "menu_date_web": null
  },
  {
   "id": "z-pivovarviktor-50.0869",
   "name": "Pivovar Viktor",
   "district": null,
   "address": null,
   "lat": 50.0868751,
   "lng": 14.4503379,
   "url": null,
   "menu": [],
   "menu_status": "none",
   "menu_url": null,
   "platform": "none",
   "source": "web",
   "zone": true,
   "time_from": null,
   "time_to": null,
   "web_confirmed": false,
   "website": null,
   "source_url": null,
   "menu_date_web": null
  },
  {
   "id": "z-chibimochi-50.0772",
   "name": "Chibi Mochi",
   "district": null,
   "address": null,
   "lat": 50.0772297,
   "lng": 14.4528039,
   "url": null,
   "menu": [],
   "menu_status": "none",
   "menu_url": null,
   "platform": "none",
   "source": "web",
   "zone": true,
   "time_from": null,
   "time_to": null,
   "web_confirmed": false,
   "website": null,
   "source_url": null,
   "menu_date_web": null
  },
  {
   "id": "z-danurestaurantwinecell-50.0752",
   "name": "Danu Restaurant & Wine Cellar",
   "district": null,
   "address": null,
   "lat": 50.0752189,
   "lng": 14.4418493,
   "url": "https://danuprague.choiceqr.com/section:poledni-menu",
   "menu": [],
   "menu_status": "link",
   "menu_url": "https://danuprague.choiceqr.com/section:poledni-menu",
   "platform": "choiceqr",
   "source": "web",
   "zone": true,
   "time_from": null,
   "time_to": null,
   "web_confirmed": false,
   "website": "https://danu.rest",
   "source_url": "https://danuprague.choiceqr.com/section:poledni-menu",
   "menu_date_web": null
  },
  {
   "id": "z-pizzeriaeinstein-50.0847",
   "name": "Pizzeria Einstein",
   "district": null,
   "address": null,
   "lat": 50.0847283,
   "lng": 14.4486671,
   "url": "https://www.pizza-einstein.cz/",
   "menu": [],
   "menu_status": "link",
   "menu_url": "https://www.pizza-einstein.cz/",
   "platform": "web",
   "source": "web",
   "zone": true,
   "time_from": null,
   "time_to": null,
   "web_confirmed": false,
   "website": "https://www.pizza-einstein.cz/",
   "source_url": "https://www.pizza-einstein.cz/",
   "menu_date_web": null
  },
  {
   "id": "z-vegancity-50.0871",
   "name": "Vegan City",
   "district": null,
   "address": null,
   "lat": 50.0870535,
   "lng": 14.4502687,
   "url": null,
   "menu": [],
   "menu_status": "none",
   "menu_url": null,
   "platform": "none",
   "source": "web",
   "zone": true,
   "time_from": null,
   "time_to": null,
   "web_confirmed": false,
   "website": null,
   "source_url": null,
   "menu_date_web": null
  },
  {
   "id": "z-soulkitchen-50.0752",
   "name": "Soul Kitchen",
   "district": null,
   "address": null,
   "lat": 50.075213,
   "lng": 14.4417427,
   "url": null,
   "menu": [],
   "menu_status": "none",
   "menu_url": null,
   "platform": "none",
   "source": "web",
   "zone": true,
   "time_from": null,
   "time_to": null,
   "web_confirmed": false,
   "website": null,
   "source_url": null,
   "menu_date_web": null
  },
  {
   "id": "z-huongsen-50.0765",
   "name": "Huong Sen",
   "district": null,
   "address": null,
   "lat": 50.0765432,
   "lng": 14.4523363,
   "url": null,
   "menu": [],
   "menu_status": "none",
   "menu_url": null,
   "platform": "none",
   "source": "web",
   "zone": true,
   "time_from": null,
   "time_to": null,
   "web_confirmed": false,
   "website": null,
   "source_url": null,
   "menu_date_web": null
  },
  {
   "id": "z-highlandsteakhouse-50.0792",
   "name": "Highland Steak House",
   "district": null,
   "address": null,
   "lat": 50.079232,
   "lng": 14.4575947,
   "url": null,
   "menu": [],
   "menu_status": "none",
   "menu_url": null,
   "platform": "none",
   "source": "web",
   "zone": true,
   "time_from": null,
   "time_to": null,
   "web_confirmed": false,
   "website": null,
   "source_url": null,
   "menu_date_web": null
  },
  {
   "id": "z-hostinecvlucemburske-50.079",
   "name": "Hostinec v Lucemburské",
   "district": null,
   "address": null,
   "lat": 50.0790337,
   "lng": 14.4560633,
   "url": null,
   "menu": [],
   "menu_status": "none",
   "menu_url": null,
   "platform": "none",
   "source": "web",
   "zone": true,
   "time_from": null,
   "time_to": null,
   "web_confirmed": false,
   "website": null,
   "source_url": null,
   "menu_date_web": null
  },
  {
   "id": "z-sandokanveganbistro-50.0755",
   "name": "Sandokan Vegan Bistro",
   "district": null,
   "address": null,
   "lat": 50.0755088,
   "lng": 14.4514627,
   "url": "https://sandokanprague.cz/",
   "menu": [],
   "menu_status": "link",
   "menu_url": "https://sandokanprague.cz/",
   "platform": "web",
   "source": "web",
   "zone": true,
   "time_from": null,
   "time_to": null,
   "web_confirmed": false,
   "website": "https://sandokanprague.cz/",
   "source_url": "https://sandokanprague.cz/",
   "menu_date_web": null
  },
  {
   "id": "z-spiritbar-50.086",
   "name": "Spirit Bar",
   "district": null,
   "address": null,
   "lat": 50.0859666,
   "lng": 14.4486844,
   "url": "https://www.spiritbar.cz/",
   "menu": [],
   "menu_status": "link",
   "menu_url": "https://www.spiritbar.cz/",
   "platform": "web",
   "source": "web",
   "zone": true,
   "time_from": null,
   "time_to": null,
   "web_confirmed": false,
   "website": "https://www.spiritbar.cz/",
   "source_url": "https://www.spiritbar.cz/",
   "menu_date_web": "2026-06-05"
  },
  {
   "id": "z-thefarmersmarket-50.0794",
   "name": "The Farmer's Market",
   "district": null,
   "address": null,
   "lat": 50.0793936,
   "lng": 14.4596282,
   "url": null,
   "menu": [],
   "menu_status": "none",
   "menu_url": null,
   "platform": "none",
   "source": "web",
   "zone": true,
   "time_from": null,
   "time_to": null,
   "web_confirmed": false,
   "website": null,
   "source_url": null,
   "menu_date_web": null
  },
  {
   "id": "z-umbrellalunchbar-50.0835",
   "name": "Umbrella Lunch Bar",
   "district": null,
   "address": null,
   "lat": 50.0835059,
   "lng": 14.4418101,
   "url": null,
   "menu": [],
   "menu_status": "none",
   "menu_url": null,
   "platform": "none",
   "source": "web",
   "zone": true,
   "time_from": null,
   "time_to": null,
   "web_confirmed": false,
   "website": null,
   "source_url": null,
   "menu_date_web": null
  },
  {
   "id": "z-jiajiale-50.0773",
   "name": "Jia Jia Le",
   "district": null,
   "address": null,
   "lat": 50.0772794,
   "lng": 14.4535168,
   "url": null,
   "menu": [],
   "menu_status": "none",
   "menu_url": null,
   "platform": "none",
   "source": "web",
   "zone": true,
   "time_from": null,
   "time_to": null,
   "web_confirmed": false,
   "website": null,
   "source_url": null,
   "menu_date_web": null
  },
  {
   "id": "z-uvystrelenyhovoka-50.0871",
   "name": "U Vystřelenýho voka",
   "district": null,
   "address": null,
   "lat": 50.087127,
   "lng": 14.4495723,
   "url": "http://www.uvoka.cz/",
   "menu": [],
   "menu_status": "link",
   "menu_url": "http://www.uvoka.cz/",
   "platform": "web",
   "source": "web",
   "zone": true,
   "time_from": null,
   "time_to": null,
   "web_confirmed": false,
   "website": "http://www.uvoka.cz/",
   "source_url": "http://www.uvoka.cz/",
   "menu_date_web": null
  },
  {
   "id": "z-arepasdelyna-50.0755",
   "name": "Arepas de Lyna",
   "district": null,
   "address": null,
   "lat": 50.0755049,
   "lng": 14.4517917,
   "url": "https://www.arepasdelyna.cz/",
   "menu": [],
   "menu_status": "link",
   "menu_url": "https://www.arepasdelyna.cz/",
   "platform": "web",
   "source": "web",
   "zone": true,
   "time_from": null,
   "time_to": null,
   "web_confirmed": false,
   "website": "https://www.arepasdelyna.cz/",
   "source_url": "https://www.arepasdelyna.cz/",
   "menu_date_web": null
  },
  {
   "id": "z-pardubickapivniceujary-50.0861",
   "name": "Pardubická pivnice U Járy",
   "district": null,
   "address": null,
   "lat": 50.0860888,
   "lng": 14.4484876,
   "url": "https://www.pivniceujary.cz/",
   "menu": [],
   "menu_status": "link",
   "menu_url": "https://www.pivniceujary.cz/",
   "platform": "web",
   "source": "web",
   "zone": true,
   "time_from": null,
   "time_to": null,
   "web_confirmed": false,
   "website": "https://www.pivniceujary.cz/",
   "source_url": "https://www.pivniceujary.cz/",
   "menu_date_web": null
  },
  {
   "id": "z-kohoutek-50.0764",
   "name": "Kohoutek",
   "district": null,
   "address": null,
   "lat": 50.0764226,
   "lng": 14.4530841,
   "url": null,
   "menu": [],
   "menu_status": "none",
   "menu_url": null,
   "platform": "none",
   "source": "web",
   "zone": true,
   "time_from": null,
   "time_to": null,
   "web_confirmed": false,
   "website": null,
   "source_url": null,
   "menu_date_web": null
  },
  {
   "id": "z-bernardbrewhouse-50.077",
   "name": "Bernard BREWHOUSE",
   "district": null,
   "address": null,
   "lat": 50.0770152,
   "lng": 14.4535845,
   "url": "https://www.bernardbrewhouse.cz/",
   "menu": [],
   "menu_status": "link",
   "menu_url": "https://www.bernardbrewhouse.cz/",
   "platform": "web",
   "source": "web",
   "zone": true,
   "time_from": null,
   "time_to": null,
   "web_confirmed": false,
   "website": "https://www.bernardbrewhouse.cz/",
   "source_url": "https://www.bernardbrewhouse.cz/",
   "menu_date_web": null
  },
  {
   "id": "z-balarama-50.0787",
   "name": "Balaráma",
   "district": null,
   "address": null,
   "lat": 50.0786705,
   "lng": 14.4550428,
   "url": "https://www.balarama.cz/",
   "menu": [],
   "menu_status": "link",
   "menu_url": "https://www.balarama.cz/",
   "platform": "web",
   "source": "web",
   "zone": true,
   "time_from": null,
   "time_to": null,
   "web_confirmed": false,
   "website": "https://www.balarama.cz/",
   "source_url": "https://www.balarama.cz/",
   "menu_date_web": null
  },
  {
   "id": "z-topdonerkebab-50.0775",
   "name": "Top Doner Kebab",
   "district": null,
   "address": null,
   "lat": 50.077512,
   "lng": 14.4539676,
   "url": null,
   "menu": [],
   "menu_status": "none",
   "menu_url": null,
   "platform": "none",
   "source": "web",
   "zone": true,
   "time_from": null,
   "time_to": null,
   "web_confirmed": false,
   "website": null,
   "source_url": null,
   "menu_date_web": null
  },
  {
   "id": "z-harmonie-50.0846",
   "name": "Harmonie",
   "district": null,
   "address": null,
   "lat": 50.0846202,
   "lng": 14.447706,
   "url": "https://harmonie.cz",
   "menu": [],
   "menu_status": "link",
   "menu_url": "https://harmonie.cz",
   "platform": "web",
   "source": "web",
   "zone": true,
   "time_from": null,
   "time_to": null,
   "web_confirmed": false,
   "website": "https://harmonie.cz",
   "source_url": "https://harmonie.cz",
   "menu_date_web": null
  },
  {
   "id": "z-upizducha-50.0851",
   "name": "U Pižďucha",
   "district": null,
   "address": null,
   "lat": 50.08515,
   "lng": 14.4478253,
   "url": "https://www.upizducha.cz/",
   "menu": [],
   "menu_status": "link",
   "menu_url": "https://www.upizducha.cz/",
   "platform": "web",
   "source": "web",
   "zone": true,
   "time_from": null,
   "time_to": null,
   "web_confirmed": false,
   "website": "https://www.upizducha.cz/",
   "source_url": "https://www.upizducha.cz/",
   "menu_date_web": null
  },
  {
   "id": "z-nola-50.0783",
   "name": "Nola",
   "district": null,
   "address": null,
   "lat": 50.0783102,
   "lng": 14.4543167,
   "url": "https://www.nolabistro.cz/",
   "menu": [],
   "menu_status": "link",
   "menu_url": "https://www.nolabistro.cz/",
   "platform": "none",
   "source": "web",
   "zone": true,
   "time_from": null,
   "time_to": null,
   "web_confirmed": false,
   "website": "https://www.nolabistro.cz/",
   "source_url": "https://www.nolabistro.cz/",
   "menu_date_web": null
  },
  {
   "id": "z-pivovarvictor-50.0868",
   "name": "Pivovar Victor",
   "district": null,
   "address": null,
   "lat": 50.0868483,
   "lng": 14.4488204,
   "url": "https://victorbeer.choiceqr.com/section:poledni-menu",
   "menu": [],
   "menu_status": "link",
   "menu_url": "https://victorbeer.choiceqr.com/section:poledni-menu",
   "platform": "choiceqr",
   "source": "web",
   "zone": true,
   "time_from": null,
   "time_to": null,
   "web_confirmed": false,
   "website": "https://pivovarvictor.cz/",
   "source_url": "https://victorbeer.choiceqr.com/section:poledni-menu",
   "menu_date_web": null
  },
  {
   "id": "z-lacasatrattoria-50.0861",
   "name": "La Casa Trattoria",
   "district": null,
   "address": null,
   "lat": 50.0860821,
   "lng": 14.4481996,
   "url": "https://www.lacasatrattoria.com/poledni-menu/",
   "menu": [],
   "menu_status": "link",
   "menu_url": "https://www.lacasatrattoria.com/poledni-menu/",
   "platform": "generic",
   "source": "web",
   "zone": true,
   "time_from": null,
   "time_to": null,
   "web_confirmed": false,
   "website": "https://lacasatrattoria.com",
   "source_url": "https://www.lacasatrattoria.com/poledni-menu/",
   "menu_date_web": null
  },
  {
   "id": "z-cernablackswine-50.0786",
   "name": "Černá/Black Swine",
   "district": null,
   "address": null,
   "lat": 50.0786441,
   "lng": 14.4578304,
   "url": null,
   "menu": [],
   "menu_status": "none",
   "menu_url": null,
   "platform": "none",
   "source": "web",
   "zone": true,
   "time_from": null,
   "time_to": null,
   "web_confirmed": false,
   "website": null,
   "source_url": null,
   "menu_date_web": null
  },
  {
   "id": "z-sushitamda-50.0767",
   "name": "Sushi Tamda",
   "district": null,
   "address": null,
   "lat": 50.0767133,
   "lng": 14.4537028,
   "url": "https://sushitamda.cz",
   "menu": [],
   "menu_status": "link",
   "menu_url": "https://sushitamda.cz",
   "platform": "web",
   "source": "web",
   "zone": true,
   "time_from": null,
   "time_to": null,
   "web_confirmed": false,
   "website": "https://sushitamda.cz",
   "source_url": "https://sushitamda.cz",
   "menu_date_web": null
  },
  {
   "id": "z-hanoi-50.0765",
   "name": "Ha Noi",
   "district": null,
   "address": null,
   "lat": 50.0764629,
   "lng": 14.4537678,
   "url": null,
   "menu": [],
   "menu_status": "none",
   "menu_url": null,
   "platform": "none",
   "source": "web",
   "zone": true,
   "time_from": null,
   "time_to": null,
   "web_confirmed": false,
   "website": null,
   "source_url": null,
   "menu_date_web": null
  },
  {
   "id": "z-sonora-50.0782",
   "name": "Sonora",
   "district": null,
   "address": null,
   "lat": 50.0781832,
   "lng": 14.4565981,
   "url": null,
   "menu": [],
   "menu_status": "none",
   "menu_url": null,
   "platform": "none",
   "source": "web",
   "zone": true,
   "time_from": null,
   "time_to": null,
   "web_confirmed": false,
   "website": null,
   "source_url": null,
   "menu_date_web": null
  },
  {
   "id": "z-labula-50.0755",
   "name": "Lá Bù Lá",
   "district": null,
   "address": null,
   "lat": 50.0755237,
   "lng": 14.4532418,
   "url": "https://www.labula.cz/",
   "menu": [],
   "menu_status": "link",
   "menu_url": "https://www.labula.cz/",
   "platform": "web",
   "source": "web",
   "zone": true,
   "time_from": null,
   "time_to": null,
   "web_confirmed": false,
   "website": "https://www.labula.cz/",
   "source_url": "https://www.labula.cz/",
   "menu_date_web": null
  },
  {
   "id": "z-hospudkavatelieru-50.0776",
   "name": "Hospůdka v Ateliéru",
   "district": null,
   "address": null,
   "lat": 50.0775793,
   "lng": 14.4549767,
   "url": null,
   "menu": [],
   "menu_status": "none",
   "menu_url": null,
   "platform": "none",
   "source": "web",
   "zone": true,
   "time_from": null,
   "time_to": null,
   "web_confirmed": false,
   "website": null,
   "source_url": null,
   "menu_date_web": null
  },
  {
   "id": "z-vegggo-50.079",
   "name": "Vegg Go",
   "district": null,
   "address": null,
   "lat": 50.078982,
   "lng": 14.4610982,
   "url": "https://vegg-go.com/",
   "menu": [],
   "menu_status": "link",
   "menu_url": "https://vegg-go.com/",
   "platform": "web",
   "source": "web",
   "zone": true,
   "time_from": null,
   "time_to": null,
   "web_confirmed": false,
   "website": "https://vegg-go.com/",
   "source_url": "https://vegg-go.com/",
   "menu_date_web": null
  },
  {
   "id": "z-mondialpizza-50.0851",
   "name": "Mondial Pizza",
   "district": null,
   "address": null,
   "lat": 50.0851016,
   "lng": 14.4452626,
   "url": "https://mondialpizza.com",
   "menu": [],
   "menu_status": "link",
   "menu_url": "https://mondialpizza.com",
   "platform": "web",
   "source": "web",
   "zone": true,
   "time_from": null,
   "time_to": null,
   "web_confirmed": false,
   "website": "https://mondialpizza.com",
   "source_url": "https://mondialpizza.com",
   "menu_date_web": null
  },
  {
   "id": "z-bistreet-50.0788",
   "name": "Bistreet",
   "district": null,
   "address": null,
   "lat": 50.0788219,
   "lng": 14.4609472,
   "url": "https://bistreet.cz",
   "menu": [],
   "menu_status": "link",
   "menu_url": "https://bistreet.cz",
   "platform": "web",
   "source": "web",
   "zone": true,
   "time_from": null,
   "time_to": null,
   "web_confirmed": false,
   "website": "https://bistreet.cz",
   "source_url": "https://bistreet.cz",
   "menu_date_web": null
  },
  {
   "id": "z-domacishawarma-50.0852",
   "name": "Domácí Shawarma",
   "district": null,
   "address": null,
   "lat": 50.0851576,
   "lng": 14.4447131,
   "url": null,
   "menu": [],
   "menu_status": "none",
   "menu_url": null,
   "platform": "none",
   "source": "web",
   "zone": true,
   "time_from": null,
   "time_to": null,
   "web_confirmed": false,
   "website": null,
   "source_url": null,
   "menu_date_web": null
  },
  {
   "id": "z-pokefun-50.0788",
   "name": "Poké Fun",
   "district": null,
   "address": null,
   "lat": 50.0787715,
   "lng": 14.4609632,
   "url": null,
   "menu": [],
   "menu_status": "none",
   "menu_url": null,
   "platform": "none",
   "source": "web",
   "zone": true,
   "time_from": null,
   "time_to": null,
   "web_confirmed": false,
   "website": null,
   "source_url": null,
   "menu_date_web": null
  },
  {
   "id": "z-ginzarunningsushi-50.0789",
   "name": "Ginza Running Sushi",
   "district": null,
   "address": null,
   "lat": 50.0789236,
   "lng": 14.4613703,
   "url": "https://www.ginza.cz/",
   "menu": [],
   "menu_status": "link",
   "menu_url": "https://www.ginza.cz/",
   "platform": "web",
   "source": "web",
   "zone": true,
   "time_from": null,
   "time_to": null,
   "web_confirmed": false,
   "website": "https://www.ginza.cz/",
   "source_url": "https://www.ginza.cz/",
   "menu_date_web": null
  },
  {
   "id": "z-pholevka-50.0787",
   "name": "Pholevka",
   "district": null,
   "address": null,
   "lat": 50.0787085,
   "lng": 14.4609705,
   "url": null,
   "menu": [],
   "menu_status": "none",
   "menu_url": null,
   "platform": "none",
   "source": "web",
   "zone": true,
   "time_from": null,
   "time_to": null,
   "web_confirmed": false,
   "website": null,
   "source_url": null,
   "menu_date_web": null
  },
  {
   "id": "z-ugo-50.0852",
   "name": "UGO",
   "district": null,
   "address": null,
   "lat": 50.0852227,
   "lng": 14.4441628,
   "url": "https://ugo.cz/",
   "menu": [],
   "menu_status": "link",
   "menu_url": "https://ugo.cz/",
   "platform": "none",
   "source": "web",
   "zone": true,
   "time_from": null,
   "time_to": null,
   "web_confirmed": false,
   "website": "https://ugo.cz/",
   "source_url": "https://ugo.cz/",
   "menu_date_web": null
  },
  {
   "id": "z-samosebou-50.085",
   "name": "SamoSebou",
   "district": null,
   "address": null,
   "lat": 50.0850016,
   "lng": 14.4427702,
   "url": null,
   "menu": [],
   "menu_status": "none",
   "menu_url": null,
   "platform": "none",
   "source": "web",
   "zone": true,
   "time_from": null,
   "time_to": null,
   "web_confirmed": false,
   "website": null,
   "source_url": null,
   "menu_date_web": null
  },
  {
   "id": "z-cinskebistro-50.0852",
   "name": "Čínské bistro",
   "district": null,
   "address": null,
   "lat": 50.0852381,
   "lng": 14.4439606,
   "url": null,
   "menu": [],
   "menu_status": "none",
   "menu_url": null,
   "platform": "none",
   "source": "web",
   "zone": true,
   "time_from": null,
   "time_to": null,
   "web_confirmed": false,
   "website": null,
   "source_url": null,
   "menu_date_web": null
  },
  {
   "id": "z-vycep-50.0753",
   "name": "Výčep",
   "district": null,
   "address": null,
   "lat": 50.0752577,
   "lng": 14.4536258,
   "url": "https://www.vycepkorunni.cz/",
   "menu": [],
   "menu_status": "link",
   "menu_url": "https://www.vycepkorunni.cz/",
   "platform": "web",
   "source": "web",
   "zone": true,
   "time_from": null,
   "time_to": null,
   "web_confirmed": false,
   "website": "https://www.vycepkorunni.cz/",
   "source_url": "https://www.vycepkorunni.cz/",
   "menu_date_web": "2026-06-05"
  },
  {
   "id": "z-lovingbistroocflora-50.0786",
   "name": "Loving Bistro - OC Flora",
   "district": null,
   "address": null,
   "lat": 50.0785862,
   "lng": 14.4609996,
   "url": "https://www.lovingbistro.cz/en",
   "menu": [],
   "menu_status": "link",
   "menu_url": "https://www.lovingbistro.cz/en",
   "platform": "web",
   "source": "web",
   "zone": true,
   "time_from": null,
   "time_to": null,
   "web_confirmed": false,
   "website": "https://www.lovingbistro.cz/en",
   "source_url": "https://www.lovingbistro.cz/en",
   "menu_date_web": null
  },
  {
   "id": "z-queenskebab-50.0853",
   "name": "Queen's kebab",
   "district": null,
   "address": null,
   "lat": 50.0852961,
   "lng": 14.4435251,
   "url": null,
   "menu": [],
   "menu_status": "none",
   "menu_url": null,
   "platform": "none",
   "source": "web",
   "zone": true,
   "time_from": null,
   "time_to": null,
   "web_confirmed": false,
   "website": null,
   "source_url": null,
   "menu_date_web": null
  },
  {
   "id": "z-ugovasalaterie-50.0785",
   "name": "Ugova Salaterie",
   "district": null,
   "address": null,
   "lat": 50.0784806,
   "lng": 14.4610376,
   "url": null,
   "menu": [],
   "menu_status": "none",
   "menu_url": null,
   "platform": "none",
   "source": "web",
   "zone": true,
   "time_from": null,
   "time_to": null,
   "web_confirmed": false,
   "website": null,
   "source_url": null,
   "menu_date_web": null
  },
  {
   "id": "z-uhabasku-50.0858",
   "name": "U Habásků",
   "district": null,
   "address": null,
   "lat": 50.0857801,
   "lng": 14.4464636,
   "url": "https://uhabasku.cz",
   "menu": [],
   "menu_status": "link",
   "menu_url": "https://uhabasku.cz",
   "platform": "web",
   "source": "web",
   "zone": true,
   "time_from": null,
   "time_to": null,
   "web_confirmed": false,
   "website": "https://uhabasku.cz",
   "source_url": "https://uhabasku.cz",
   "menu_date_web": null
  },
  {
   "id": "z-mcdonalds-50.0786",
   "name": "McDonald's",
   "district": null,
   "address": null,
   "lat": 50.0786263,
   "lng": 14.4614504,
   "url": "https://www.mcdonalds.cz/",
   "menu": [],
   "menu_status": "link",
   "menu_url": "https://www.mcdonalds.cz/",
   "platform": "web",
   "source": "web",
   "zone": true,
   "time_from": null,
   "time_to": null,
   "web_confirmed": false,
   "website": "https://www.mcdonalds.cz/",
   "source_url": "https://www.mcdonalds.cz/",
   "menu_date_web": null
  },
  {
   "id": "z-orangemoon-50.0784",
   "name": "Orange Moon",
   "district": null,
   "address": null,
   "lat": 50.0784086,
   "lng": 14.4609769,
   "url": "https://www.orangemoon.cz/",
   "menu": [],
   "menu_status": "link",
   "menu_url": "https://www.orangemoon.cz/",
   "platform": "web",
   "source": "web",
   "zone": true,
   "time_from": null,
   "time_to": null,
   "web_confirmed": false,
   "website": "https://www.orangemoon.cz/",
   "source_url": "https://www.orangemoon.cz/",
   "menu_date_web": null
  },
  {
   "id": "z-paithai-50.0783",
   "name": "Pai Thai",
   "district": null,
   "address": null,
   "lat": 50.0783444,
   "lng": 14.4610014,
   "url": null,
   "menu": [],
   "menu_status": "none",
   "menu_url": null,
   "platform": "none",
   "source": "web",
   "zone": true,
   "time_from": null,
   "time_to": null,
   "web_confirmed": false,
   "website": null,
   "source_url": null,
   "menu_date_web": null
  },
  {
   "id": "z-primabasta-50.0785",
   "name": "Prima Bašta",
   "district": null,
   "address": null,
   "lat": 50.078476,
   "lng": 14.4614858,
   "url": "https://primabasta.cz",
   "menu": [],
   "menu_status": "link",
   "menu_url": "https://primabasta.cz",
   "platform": "web",
   "source": "web",
   "zone": true,
   "time_from": null,
   "time_to": null,
   "web_confirmed": false,
   "website": "https://primabasta.cz",
   "source_url": "https://primabasta.cz",
   "menu_date_web": null
  },
  {
   "id": "z-neapolis-50.0775",
   "name": "Neapolis",
   "district": null,
   "address": null,
   "lat": 50.0774536,
   "lng": 14.4567852,
   "url": "https://neapolis.eu/",
   "menu": [],
   "menu_status": "link",
   "menu_url": "https://neapolis.eu/",
   "platform": "web",
   "source": "web",
   "zone": true,
   "time_from": null,
   "time_to": null,
   "web_confirmed": false,
   "website": "https://neapolis.eu/",
   "source_url": "https://neapolis.eu/",
   "menu_date_web": null
  },
  {
   "id": "z-ifoodroboticcooking-50.0783",
   "name": "iFood robotic cooking",
   "district": null,
   "address": null,
   "lat": 50.0783084,
   "lng": 14.4610894,
   "url": null,
   "menu": [],
   "menu_status": "none",
   "menu_url": null,
   "platform": "none",
   "source": "web",
   "zone": true,
   "time_from": null,
   "time_to": null,
   "web_confirmed": false,
   "website": null,
   "source_url": null,
   "menu_date_web": null
  },
  {
   "id": "z-wokdej-50.0784",
   "name": "WOK-DEJ",
   "district": null,
   "address": null,
   "lat": 50.0784233,
   "lng": 14.4614989,
   "url": null,
   "menu": [],
   "menu_status": "none",
   "menu_url": null,
   "platform": "none",
   "source": "web",
   "zone": true,
   "time_from": null,
   "time_to": null,
   "web_confirmed": false,
   "website": null,
   "source_url": null,
   "menu_date_web": null
  },
  {
   "id": "z-apetit-50.0774",
   "name": "Apetit",
   "district": null,
   "address": null,
   "lat": 50.0773891,
   "lng": 14.4560119,
   "url": "https://apetit.cz",
   "menu": [],
   "menu_status": "link",
   "menu_url": "https://apetit.cz",
   "platform": "web",
   "source": "web",
   "zone": true,
   "time_from": null,
   "time_to": null,
   "web_confirmed": false,
   "website": "https://apetit.cz",
   "source_url": "https://apetit.cz",
   "menu_date_web": null
  },
  {
   "id": "z-pubble-50.0752",
   "name": "Pubble",
   "district": null,
   "address": null,
   "lat": 50.0751683,
   "lng": 14.4541873,
   "url": "https://www.pubble.cz",
   "menu": [],
   "menu_status": "link",
   "menu_url": "https://www.pubble.cz",
   "platform": "web",
   "source": "web",
   "zone": true,
   "time_from": null,
   "time_to": null,
   "web_confirmed": false,
   "website": "https://www.pubble.cz",
   "source_url": "https://www.pubble.cz",
   "menu_date_web": null
  },
  {
   "id": "z-papaspepper-50.0755",
   "name": "Papa's Pepper",
   "district": null,
   "address": null,
   "lat": 50.075542,
   "lng": 14.4546112,
   "url": null,
   "menu": [],
   "menu_status": "none",
   "menu_url": null,
   "platform": "none",
   "source": "web",
   "zone": true,
   "time_from": null,
   "time_to": null,
   "web_confirmed": false,
   "website": null,
   "source_url": null,
   "menu_date_web": null
  },
  {
   "id": "z-bageterieboulevard-50.0784",
   "name": "Bageterie Boulevard",
   "district": null,
   "address": null,
   "lat": 50.0783726,
   "lng": 14.461515,
   "url": "https://www.bb.cz/",
   "menu": [],
   "menu_status": "link",
   "menu_url": "https://www.bb.cz/",
   "platform": "web",
   "source": "web",
   "zone": true,
   "time_from": null,
   "time_to": null,
   "web_confirmed": false,
   "website": "https://www.bb.cz/",
   "source_url": "https://www.bb.cz/",
   "menu_date_web": null
  },
  {
   "id": "z-bistrokorunni-50.0755",
   "name": "Bistro Korunní",
   "district": null,
   "address": null,
   "lat": 50.075543,
   "lng": 14.4547363,
   "url": null,
   "menu": [],
   "menu_status": "none",
   "menu_url": null,
   "platform": "none",
   "source": "web",
   "zone": true,
   "time_from": null,
   "time_to": null,
   "web_confirmed": false,
   "website": null,
   "source_url": null,
   "menu_date_web": null
  },
  {
   "id": "z-pivnibar-50.0779",
   "name": "Pivní bar",
   "district": null,
   "address": null,
   "lat": 50.0779338,
   "lng": 14.4604196,
   "url": null,
   "menu": [],
   "menu_status": "none",
   "menu_url": null,
   "platform": "none",
   "source": "web",
   "zone": true,
   "time_from": null,
   "time_to": null,
   "web_confirmed": false,
   "website": null,
   "source_url": null,
   "menu_date_web": null
  },
  {
   "id": "z-spiceindia-50.0868",
   "name": "Spice India",
   "district": null,
   "address": null,
   "lat": 50.0868466,
   "lng": 14.446589,
   "url": "https://spiceindia.choiceqr.com/section:poledni-menu",
   "menu": [],
   "menu_status": "link",
   "menu_url": "https://spiceindia.choiceqr.com/section:poledni-menu",
   "platform": "choiceqr",
   "source": "web",
   "zone": true,
   "time_from": null,
   "time_to": null,
   "web_confirmed": false,
   "website": "https://www.spiceindia.cz/",
   "source_url": "https://spiceindia.choiceqr.com/section:poledni-menu",
   "menu_date_web": null
  },
  {
   "id": "z-kfc-50.0783",
   "name": "KFC",
   "district": null,
   "address": null,
   "lat": 50.0783162,
   "lng": 14.4615786,
   "url": "https://www.kfc.cz/",
   "menu": [],
   "menu_status": "link",
   "menu_url": "https://www.kfc.cz/",
   "platform": "web",
   "source": "web",
   "zone": true,
   "time_from": null,
   "time_to": null,
   "web_confirmed": false,
   "website": "https://www.kfc.cz/",
   "source_url": "https://www.kfc.cz/",
   "menu_date_web": null
  },
  {
   "id": "z-oasisprague-50.0776",
   "name": "Oasis Prague",
   "district": null,
   "address": null,
   "lat": 50.0775578,
   "lng": 14.4591522,
   "url": null,
   "menu": [],
   "menu_status": "none",
   "menu_url": null,
   "platform": "none",
   "source": "web",
   "zone": true,
   "time_from": null,
   "time_to": null,
   "web_confirmed": false,
   "website": null,
   "source_url": null,
   "menu_date_web": null
  },
  {
   "id": "z-greentearestaurant-50.0864",
   "name": "Green Tea restaurant",
   "district": null,
   "address": null,
   "lat": 50.0864238,
   "lng": 14.4462288,
   "url": null,
   "menu": [],
   "menu_status": "none",
   "menu_url": null,
   "platform": "none",
   "source": "web",
   "zone": true,
   "time_from": null,
   "time_to": null,
   "web_confirmed": false,
   "website": null,
   "source_url": null,
   "menu_date_web": null
  },
  {
   "id": "z-mrbanhmi-50.0854",
   "name": "Mr. Banh Mi",
   "district": null,
   "address": null,
   "lat": 50.0854045,
   "lng": 14.4410762,
   "url": null,
   "menu": [],
   "menu_status": "none",
   "menu_url": null,
   "platform": "none",
   "source": "web",
   "zone": true,
   "time_from": null,
   "time_to": null,
   "web_confirmed": false,
   "website": null,
   "source_url": null,
   "menu_date_web": null
  },
  {
   "id": "z-domacitestoviny-50.0854",
   "name": "Domácí těstoviny",
   "district": null,
   "address": null,
   "lat": 50.0854351,
   "lng": 14.4410155,
   "url": "https://www.domacitestoviny.eu/",
   "menu": [],
   "menu_status": "link",
   "menu_url": "https://www.domacitestoviny.eu/",
   "platform": "web",
   "source": "web",
   "zone": true,
   "time_from": null,
   "time_to": null,
   "web_confirmed": false,
   "website": "https://www.domacitestoviny.eu/",
   "source_url": "https://www.domacitestoviny.eu/",
   "menu_date_web": null
  },